SALE TYPE,SOLD DATE,PROPERTY TYPE,ADDRESS,CITY,STATE,ZIP,PRICE,BEDS,BATHS,LOCATION,SQUARE FEET,LOT SIZE,YEAR BUILT,DAYS ON MARKET,$/SQUARE FEET,HOA/MONTH,STATUS,NEXT OPEN HOUSE START TIME,NEXT OPEN HOUSE END TIME,URL (SEE http://www.redfin.com/buy-a-home/comparative-market-analysis FOR INFO ON PRICING),SOURCE,MLS#,FAVORITE,INTERESTED,LATITUDE,LONGITUDE
MLS Listing,,Single Family Residential,4044 N Marmora Ave,CHICAGO,IL,60634,374900,5,2.0,Portage Park,,3750,1923,4,,,Active,,,http://www.redfin.com/IL/Chicago/4044-N-Marmora-Ave-60634/home/13474293,MRED,10127175,N,Y,41.9544652,-87.7746614
MLS Listing,,Condo/Co-op,125 S Green St Unit 1110A,CHICAGO,IL,60607,360000,1,1.0,Near West Side,,,2007,5,,501,Active,,,http://www.redfin.com/IL/Chicago/125-S-Green-St-60607/unit-1110A/home/39569340,MRED,10126137,N,Y,41.8796382,-87.6482089
MLS Listing,,Condo/Co-op,525 N Halsted St #603,CHICAGO,IL,60642,359900,2,2.0,West Town,,,1888,20,,505,Active,,,http://www.redfin.com/IL/Chicago/525-N-Halsted-St-60642/unit-603/home/14102797,MRED,10113394,N,Y,41.891893,-87.647064
MLS Listing,,Condo/Co-op,835 W Belden Ave Unit U2,CHICAGO,IL,60614,368900,2,1.0,Lincoln Park,1100,,,25,335,386,Active,,,http://www.redfin.com/IL/Chicago/835-W-Belden-Ave-60614/unit-U2/home/13352857,MRED,10109629,N,Y,41.92335,-87.650091
MLS Listing,,Condo/Co-op,2865 N Clybourn Ave #3,CHICAGO,IL,60618,369000,2,2.0,North Center,1600,3238,2004,40,231,125,Active,,,http://www.redfin.com/IL/Chicago/2865-N-Clybourn-Ave-60618/unit-3/home/12636461,MRED,10094712,N,Y,41.9338461,-87.6797846
MLS Listing,,Condo/Co-op,901 W Madison St #1005,CHICAGO,IL,60607,375000,1,1.5,Near West Side,877,34973,2007,61,428,467,Active,,,http://www.redfin.com/IL/Chicago/901-W-Madison-St-60607/unit-1005/home/26818012,MRED,10073019,N,Y,41.8814073,-87.650281
MLS Listing,,Condo/Co-op,1000 N Lake Shore Dr #1501,CHICAGO,IL,60611,359999,2,2.0,Near North Side,,,1953,62,,1066,Active,,,http://www.redfin.com/IL/Chicago/1000-N-Lake-Shore-Dr-60611/unit-1501/home/14121600,MRED,10070795,N,Y,41.9012119,-87.6246453
MLS Listing,,Condo/Co-op,611 S Wells St #2504,CHICAGO,IL,60607,359999,1,2.0,Loop,,,2008,143,,530,Active,,,http://www.redfin.com/IL/Chicago/611-S-Wells-St-60607/unit-2504/home/40368708,MRED,09986837,N,Y,41.8741493,-87.6334072
MLS Listing,,Single Family Residential,10017 S Claremont Ave,CHICAGO,IL,60643,350000,4,2.0,Beverly,1898,6200,1954,1,184,,Active,,,http://www.redfin.com/IL/Chicago/10017-S-Claremont-Ave-60643/home/13097109,MRED,10130802,N,Y,41.7113007,-87.6802642
MLS Listing,,Single Family Residential,9126 S Yates Blvd,CHICAGO,IL,60617,350000,3,2.0,Calumet Heights,1700,3123,1951,1,206,,Active,,,http://www.redfin.com/IL/Chicago/9126-S-Yates-Blvd-60617/home/13115420,MRED,10130541,N,Y,41.729081,-87.566144
MLS Listing,,Condo/Co-op,740 W Fulton St #1212,CHICAGO,IL,60661,360000,1,1.0,Near West Side,,,2007,1,,436,Active,,,http://www.redfin.com/IL/Chicago/740-W-Fulton-St-60661/unit-1212/home/26780325,MRED,10130461,N,Y,41.8871855,-87.6472064
MLS Listing,,Condo/Co-op,1740 N Maplewood Ave #305,CHICAGO,IL,60647,373000,2,2.0,West Town,1200,,,1,311,318,Active,November-11-2018 11:00 AM,November-11-2018 01:00 PM,http://www.redfin.com/IL/Chicago/1740-N-Maplewood-Ave-60647/unit-305/home/12707756,MRED,10130358,N,Y,41.9135051,-87.6914529
MLS Listing,,Condo/Co-op,2343 N Greenview Ave #212,CHICAGO,IL,60614,350000,2,1.0,Lincoln Park,1400,,,1,250,278,Active,November-10-2018 12:00 PM,November-10-2018 02:00 PM,http://www.redfin.com/IL/Chicago/2343-N-Greenview-Ave-60614/unit-212/home/13354151,MRED,10130119,N,Y,41.9245044,-87.6654325
MLS Listing,,Condo/Co-op,3500 N LAKE SHORE Dr Unit 4A,CHICAGO,IL,60657,370000,2,2.5,Lake View,2500,,1929,1,148,2049,Active,,,http://www.redfin.com/IL/Chicago/3500-N-Lake-Shore-Dr-60657/unit-4A/home/18367883,MRED,10129986,N,Y,41.9469092,-87.6428605
MLS Listing,,Condo/Co-op,1001 W 15th St #409,CHICAGO,IL,60608,359000,2,2.0,Near West Side,1217,,,1,295,462,Active,,,http://www.redfin.com/IL/Chicago/1001-W-15th-St-60608/unit-409/home/18917294,MRED,10129708,N,Y,41.8613621,-87.652515
MLS Listing,,Single Family Residential,3768 N Oleander Ave,CHICAGO,IL,60634,369900,3,2.0,Dunning,1400,4887,1950,2,264,,Active,,,http://www.redfin.com/IL/Chicago/3768-N-Oleander-Ave-60634/home/13543834,MRED,10129430,N,Y,41.9485958,-87.8159595
MLS Listing,,Multi-Family (2-4 Unit),6157 W Rosedale Ave,CHICAGO,IL,60646,360000,4,2.5,Norwood Park,,5227,1952,3,,,Active,,,http://www.redfin.com/IL/Chicago/6157-W-Rosedale-Ave-60646/home/13512301,MRED,10129272,N,Y,41.9882807,-87.7820018
MLS Listing,,Single Family Residential,4914 S Washington Park Ct,CHICAGO,IL,60615,364900,4,3.5,Grand Boulevard,3000,1616,1916,3,122,,Active,,,http://www.redfin.com/IL/Chicago/4914-S-Washington-Park-Ct-60615/home/13950636,MRED,10129236,N,Y,41.8052328,-87.6153409
MLS Listing,,Condo/Co-op,565 W Quincy St #704,CHICAGO,IL,60661,360000,1,1.5,Near West Side,1058,,2008,3,340,476,Active,November-11-2018 01:00 PM,November-11-2018 03:00 PM,http://www.redfin.com/IL/Chicago/565-W-Quincy-St-60661/unit-704/home/26838415,MRED,10128701,N,Y,41.8783464,-87.6420845
MLS Listing,,Multi-Family (2-4 Unit),2144 N Lockwood Ave,CHICAGO,IL,60639,364900,5,2.0,Belmont Cragin,,,1925,3,,,Active,,,http://www.redfin.com/IL/Chicago/2144-N-Lockwood-Ave-60639/home/13426159,MRED,10128678,N,Y,41.9199581,-87.7587467
MLS Listing,,Multi-Family (2-4 Unit),3016 N LARAMIE Ave,CHICAGO,IL,60641,350000,4,3.0,Belmont Cragin,,2500,1928,3,,,Active,,,http://www.redfin.com/IL/Chicago/3016-N-Laramie-Ave-60641/home/13442184,MRED,10128364,N,Y,41.9356029,-87.7569542
MLS Listing,,Condo/Co-op,3201 N RAVENSWOOD Ave #211,CHICAGO,IL,60657,350000,2,1.5,Lake View,,,,4,,225,Active,November-10-2018 10:00 AM,November-10-2018 12:00 PM,http://www.redfin.com/IL/Chicago/3201-N-Ravenswood-Ave-60657/unit-211/home/13384247,MRED,10127921,N,Y,41.9399937,-87.6731451
MLS Listing,,Multi-Family (5+ Unit),2247 119th St,BLUE ISLAND,IL,60406,359000,8,8.0,Blue Island,,3484,1970,4,,,Active,,,http://www.redfin.com/IL/Blue-Island/2247-119th-St-60406/home/13052229,MRED,10127823,N,Y,41.676981,-87.677641
MLS Listing,,Condo/Co-op,1811 W Addison St Unit 1E,CHICAGO,IL,60613,365000,2,2.0,North Center,1350,,2002,4,270,295,Active,,,http://www.redfin.com/IL/Chicago/1811-W-Addison-St-60613/unit-1E/home/145029576,MRED,10127819,N,Y,41.9467558,-87.6745233
MLS Listing,,Condo/Co-op,50 E 16th St #909,CHICAGO,IL,60616,359900,2,1.0,Near South Side,1121,,2008,4,321,528,Active,,,http://www.redfin.com/IL/Chicago/50-E-16th-St-60616/unit-909/home/40382053,MRED,10127346,N,Y,41.8603978,-87.6251552
MLS Listing,,Single Family Residential,7056 N Overhill Ave,CHICAGO,IL,60631,359900,6,1.5,Edison Park,,4264,1921,4,,,Active,,,http://www.redfin.com/IL/Chicago/7056-N-Overhill-Ave-60631/home/13638122,MRED,10127298,N,Y,42.0094529,-87.8190314
MLS Listing,,Condo/Co-op,1819 S Michigan Ave #905,CHICAGO,IL,60616,359900,2,2.0,Near South Side,1200,,2006,5,300,379,Active,,,http://www.redfin.com/IL/Chicago/1819-S-Michigan-Ave-60616/unit-905/home/26821214,MRED,10126968,N,Y,41.8572253,-87.6236513
MLS Listing,,Single Family Residential,3226 N Natoma Ave,CHICAGO,IL,60634,359900,5,3.0,Dunning,2100,3750,1937,5,171,,Active,,,http://www.redfin.com/IL/Chicago/3226-N-Natoma-Ave-60634/home/13467949,MRED,10126786,N,Y,41.9390449,-87.7923378
MLS Listing,,Condo/Co-op,5002 N Western Ave Unit 2S,CHICAGO,IL,60625,375000,2,2.0,Lincoln Square,1236,7385,,5,303,115,Active,,,http://www.redfin.com/IL/Chicago/5002-N-Western-Ave-60625/unit-2S/home/39561368,MRED,10126631,N,Y,41.9724128,-87.6894105
MLS Listing,,Condo/Co-op,3516 N SHEFFIELD Ave Unit 3RN,CHICAGO,IL,60657,365000,2,1.0,Lake View,,,,5,,262,Active,,,http://www.redfin.com/IL/Chicago/3516-N-Sheffield-Ave-60657/unit-3RN/home/145048859,MRED,10126611,N,Y,41.946004,-87.654633
MLS Listing,,Condo/Co-op,3125 W FULLERTON Ave #502,CHICAGO,IL,60647,365000,2,2.0,Logan Square,,,2006,5,,366,Active,,,http://www.redfin.com/IL/Chicago/3125-W-Fullerton-Ave-60647/unit-502/home/18936319,MRED,10126564,N,Y,41.9244309,-87.7056276
MLS Listing,,Condo/Co-op,2430 W Augusta Blvd #2,CHICAGO,IL,60622,359900,2,2.0,West Town,1250,3125,2007,5,288,255,Active,,,http://www.redfin.com/IL/Chicago/2430-W-Augusta-Blvd-60622/unit-2/home/26810547,MRED,10126494,N,Y,41.8996247,-87.6882448
MLS Listing,,Condo/Co-op,3340 N LAWNDALE Ave Unit 2S,CHICAGO,IL,60618,359900,2,2.0,Avondale,,,2018,5,,200,Active,,,http://www.redfin.com/IL/Chicago/3340-Lawndale-Ave-60618/unit-2S/home/146843665,MRED,10126468,N,Y,41.9422113,-87.7201959
MLS Listing,,Condo/Co-op,1111 S STATE St Unit A602,CHICAGO,IL,60605,369000,2,2.0,Loop,1385,,2004,5,266,944,Active,,,http://www.redfin.com/IL/Chicago/1111-S-State-St-60605/unit-A602/home/109032023,MRED,10126436,N,Y,41.8685021,-87.6270061
MLS Listing,,Condo/Co-op,2720 W Cortland St #406,CHICAGO,IL,60647,364999,2,2.0,Logan Square,975,,2004,5,374,278,Active,,,http://www.redfin.com/IL/Chicago/2720-W-Cortland-St-60647/unit-406/home/12641049,MRED,10126198,N,Y,41.9159509,-87.6955568
MLS Listing,,Condo/Co-op,635 N Dearborn St #1603,CHICAGO,IL,60654,365000,2,2.0,Near North Side,1000,,2003,5,365,626,Active,,,http://www.redfin.com/IL/Chicago/635-N-Dearborn-St-60654/unit-1603/home/12682116,MRED,10126064,N,Y,41.8934599,-87.6294108
MLS Listing,,Single Family Residential,6208 W Warwick Ave,CHICAGO,IL,60634,369500,4,2.0,Dunning,2200,3123,,5,168,,Active,,,http://www.redfin.com/IL/Chicago/6208-W-Warwick-Ave-60634/home/13465990,MRED,10125973,N,Y,41.9486227,-87.7819057
MLS Listing,,Single Family Residential,3533 N OVERHILL Ave,CHICAGO,IL,60634,364997,4,2.0,Dunning,1244,3781,1955,6,293,,Active,,,http://www.redfin.com/IL/Chicago/3533-N-Overhill-Ave-60634/home/13543594,MRED,10125914,N,Y,41.9441985,-87.8189162
MLS Listing,,Single Family Residential,9442 S HAMILTON Ave,CHICAGO,IL,60643,369000,4,2.5,Beverly,1944,6200,1949,6,190,,Active,,,http://www.redfin.com/IL/Chicago/9442-S-Hamilton-Ave-60643/home/13098905,MRED,10125834,N,Y,41.7215935,-87.6763282
MLS Listing,,Condo/Co-op,4652 N Hermitage Ave Unit 2N,CHICAGO,IL,60640,362500,2,1.0,Uptown,1600,8250,1914,6,227,360,Active,,,http://www.redfin.com/IL/Chicago/4652-N-Hermitage-Ave-60640/unit-2N/home/146511980,MRED,10125724,N,Y,41.96671,-87.67298
MLS Listing,,Condo/Co-op,2701 N MILDRED Ave Unit 3B,CHICAGO,IL,60614,374900,2,2.0,Lincoln Park,,,1920,6,,266,Active,,,http://www.redfin.com/IL/Chicago/2701-N-Mildred-Ave-60614/unit-3B/home/18918290,MRED,10125709,N,Y,41.9312319,-87.6509067
MLS Listing,,Condo/Co-op,1000 N Lake Shore Dr #1505,CHICAGO,IL,60611,350000,3,2.5,Near North Side,1800,,1953,6,194,1437,Active,,,http://www.redfin.com/IL/Chicago/1000-N-Lake-Shore-Dr-60611/unit-1505/home/14121780,MRED,10125592,N,Y,41.9012119,-87.6246453
MLS Listing,,Condo/Co-op,2147 N Kenmore Ave Unit 2S,CHICAGO,IL,60614,369900,2,1.0,Lincoln Park,,,1922,6,,216,Active,,,http://www.redfin.com/IL/Chicago/2147-N-Kenmore-Ave-60614/unit-2S/home/13351965,MRED,10125399,N,Y,41.9213668,-87.6544671
MLS Listing,,Single Family Residential,6763 N Oxford Ave,CHICAGO,IL,60631,359000,3,1.0,Edison Park,1341,3101,1923,6,268,,Active,,,http://www.redfin.com/IL/Chicago/6763-N-Oxford-Ave-60631/home/13636327,MRED,10125379,N,Y,42.0034291,-87.8134635
MLS Listing,,Condo/Co-op,3750 N Lake Shore Dr Unit 14C,CHICAGO,IL,60613,370000,3,2.5,Lake View,2200,,1926,6,168,1633,Active,,,http://www.redfin.com/IL/Chicago/3750-N-Lake-Shore-Dr-60613/unit-14C/home/18911611,MRED,10125217,N,Y,41.9519327,-87.6453375
MLS Listing,,Condo/Co-op,1524 N La Salle Dr Unit 2W,CHICAGO,IL,60610,359000,1,1.0,Near North Side,800,,,6,449,192,Active,,,http://www.redfin.com/IL/Chicago/1524-N-LaSalle-Dr-60610/unit-2W/home/14116645,MRED,10125209,N,Y,41.9099889,-87.6334209
MLS Listing,,Single Family Residential,3346 N Oak Park Ave,CHICAGO,IL,60634,373000,4,2.5,Dunning,2150,4090,1928,6,173,,Active,,,http://www.redfin.com/IL/Chicago/3346-N-Oak-Park-Ave-60634/home/13469234,MRED,10125088,N,Y,41.9414012,-87.7960643
MLS Listing,,Condo/Co-op,1910 S INDIANA Ave #418,CHICAGO,IL,60616,359000,2,2.0,Near South Side,,,2002,7,,355,Active,,,http://www.redfin.com/IL/Chicago/1910-S-Indiana-Ave-60616/unit-418/home/12635806,MRED,10124912,N,Y,41.8561734,-87.6225166
MLS Listing,,Condo/Co-op,1359 N NOBLE St #201,CHICAGO,IL,60622,350000,2,2.0,West Town,,,2008,7,,120,Active,,,http://www.redfin.com/IL/Chicago/1359-N-Noble-St-60642/unit-201/home/13128762,MRED,10124719,N,Y,41.906901,-87.662407
MLS Listing,,Multi-Family (2-4 Unit),919 S Kedzie Ave,CHICAGO,IL,60612,375000,5,5.5,East Garfield Park,,3049,2008,7,,,Active,,,http://www.redfin.com/IL/Chicago/919-S-Kedzie-Ave-60612/home/39518625,MRED,10124397,N,Y,41.8694135,-87.7055035
MLS Listing,,Single Family Residential,6943 W Oakdale Ave,CHICAGO,IL,60634,369900,4,3.0,Montclare,2894,4499,1927,7,128,,Active,,,http://www.redfin.com/IL/Chicago/6943-W-Oakdale-Ave-60634/home/13435006,MRED,10124364,N,Y,41.9333171,-87.7996561
MLS Listing,,Multi-Family (5+ Unit),258 W Marquette Rd,CHICAGO,IL,60621,360000,,36.0,Englewood,,3049,1895,8,,,Active,,,http://www.redfin.com/IL/Chicago/258-W-Marquette-Rd-60621/home/13929947,MRED,10124014,N,Y,41.7728215,-87.6323
MLS Listing,,Multi-Family (5+ Unit),252 W marquette Rd,CHICAGO,IL,60621,360000,,36.0,Englewood,,3100,1910,8,,,Active,,,http://www.redfin.com/IL/Chicago/252-W-Marquette-Rd-60621/home/13930687,MRED,10123995,N,Y,41.7728259,-87.632064
MLS Listing,,Multi-Family (2-4 Unit),5943 N Fairfield Ave,CHICAGO,IL,60659,369900,5,3.0,West Ridge,,3484,1922,9,,,Active,,,http://www.redfin.com/IL/Chicago/5943-N-Fairfield-Ave-60659/unit-1/home/13519066,MRED,10123634,N,Y,41.9898826,-87.6978097
MLS Listing,,Condo/Co-op,600 S Dearborn St #1016,CHICAGO,IL,60605,359900,2,1.0,Loop,1400,,1911,9,257,545,Active,,,http://www.redfin.com/IL/Chicago/600-S-Dearborn-St-60605/unit-1016/home/14092385,MRED,10123596,N,Y,41.8740263,-87.6294406
MLS Listing,,Multi-Family (2-4 Unit),8153 S South Shore Dr,CHICAGO,IL,60617,375000,8,4.0,South Chicago,,3528,1921,9,,,Active,,,http://www.redfin.com/IL/Chicago/8153-S-South-Shore-Dr-60617/home/13213576,MRED,10123527,N,Y,41.7468268,-87.5475239
MLS Listing,,Condo/Co-op,773 E Oakwood Blvd #1,CHICAGO,IL,60653,359900,5,3.0,Grand Boulevard,3000,3750,2004,9,120,250,Active,,,http://www.redfin.com/IL/Chicago/773-E-Oakwood-Blvd-60653/unit-1/home/12633537,MRED,10123476,N,Y,41.8224427,-87.6070407
MLS Listing,,Multi-Family (2-4 Unit),5440 W Warwick Ave,CHICAGO,IL,60641,374900,4,3.0,Portage Park,,3484,1916,9,,,Active,,,http://www.redfin.com/IL/Chicago/5440-W-Warwick-Ave-60641/home/13463606,MRED,10123458,N,Y,41.948986,-87.7635771
MLS Listing,,Single Family Residential,5459 N Mobile Ave,CHICAGO,IL,60630,359000,4,2.0,Jefferson Park,2000,3306,1957,10,180,,Active,,,http://www.redfin.com/IL/Chicago/5459-N-Mobile-Ave-60630/home/53715654,MRED,10123405,N,Y,41.9809704,-87.7850695
MLS Listing,,Condo/Co-op,1735 W Diversey Pkwy #216,CHICAGO,IL,60614,359000,2,2.0,Lincoln Park,1200,,2000,10,299,372,Active,,,http://www.redfin.com/IL/Chicago/1735-W-Diversey-Pkwy-60614/unit-216/home/12753669,MRED,10123290,N,Y,41.9319964,-87.6726788
MLS Listing,,Multi-Family (2-4 Unit),2057 N KENNETH Ave,CHICAGO,IL,60639,355000,5,3.0,Hermosa,,3920,1886,10,,,Active,,,http://www.redfin.com/IL/Chicago/2057-N-Kenneth-Ave-60639/home/13423365,MRED,10123226,N,Y,41.918725,-87.7372877
MLS Listing,,Single Family Residential,5117 S Rutherford Ave,CHICAGO,IL,60638,369900,4,2.0,Garfield Ridge,,3123,1996,10,,,Active,,,http://www.redfin.com/IL/Chicago/5117-S-Rutherford-Ave-60638/home/14029184,MRED,10123150,N,Y,41.7989821,-87.7902343
MLS Listing,,Condo/Co-op,4250 N Marine Dr #1102,CHICAGO,IL,60613,359900,2,2.0,Uptown,,,1962,10,,883,Active,,,http://www.redfin.com/IL/Chicago/4250-N-Marine-Dr-60613/unit-1102/home/13396566,MRED,10123065,N,Y,41.9601365,-87.6476881
MLS Listing,,Condo/Co-op,474 N LAKE SHORE Dr #4604,CHICAGO,IL,60611,355000,1,1.0,Near North Side,741,,1991,10,479,548,Active,,,http://www.redfin.com/IL/Chicago/474-N-Lake-Shore-Dr-60611/unit-4604/home/12611741,MRED,10122967,N,Y,41.8907702,-87.6148195
MLS Listing,,Single Family Residential,4045 N Mango Ave,CHICAGO,IL,60634,374900,4,2.0,Portage Park,1250,4687,1929,10,300,,Active,,,http://www.redfin.com/IL/Chicago/4045-N-Mango-Ave-60634/home/13472825,MRED,10122781,N,Y,41.9544996,-87.7704334
MLS Listing,,Multi-Family (2-4 Unit),2652 N NORDICA Ave,CHICAGO,IL,60707,355000,4,2.0,Montclare,,3125,1923,10,,,Active,,,http://www.redfin.com/IL/Chicago/2652-N-Nordica-Ave-60707/home/13434558,MRED,10122655,N,Y,41.9287437,-87.8030651
MLS Listing,,Condo/Co-op,450 E Waterside Dr #2306,CHICAGO,IL,60601,350000,1,1.0,Loop,906,2215,2007,10,386,468,Active,,,http://www.redfin.com/IL/Chicago/450-E-Waterside-Dr-60601/unit-2306/home/26780545,MRED,10122574,N,Y,41.887094,-87.6153778
MLS Listing,,Multi-Family (2-4 Unit),7814 S Essex Ave,CHICAGO,IL,60649,369995,8,5.0,South Shore,,3125,1955,11,,,Active,,,http://www.redfin.com/IL/Chicago/Undisclosed-address-60649/home/13216199,MRED,10122047,N,Y,41.7530072,-87.5640916
MLS Listing,,Townhouse,3809 N Milwaukee Ave Unit B,Chicago,IL,60640,375000,3,2.5,Irving Park,2185,1220,2000,11,172,213,Active,,,http://www.redfin.com/IL/Chicago/3809-N-Milwaukee-Ave-60641/unit-B/home/12775769,MRED,10121513,N,Y,41.950635,-87.74155
MLS Listing,,Condo/Co-op,2932 N Milwaukee Ave #301,CHICAGO,IL,60618,355000,3,2.0,Avondale,1600,3125,2007,11,222,160,Active,November-10-2018 12:00 PM,November-10-2018 02:00 PM,http://www.redfin.com/IL/Chicago/2932-N-Milwaukee-Ave-60618/unit-301/home/26806266,MRED,10109332,N,Y,41.9343273,-87.716553
MLS Listing,,Condo/Co-op,4203 N Kedvale Ave Unit 4S,CHICAGO,IL,60641,365000,3,2.0,Irving Park,1356,,2006,11,269,305,Active,,,http://www.redfin.com/IL/Chicago/4203-N-Kedvale-Ave-60641/unit-4S/home/18919759,MRED,10121397,N,Y,41.9573988,-87.7305556
MLS Listing,,Condo/Co-op,2681 N Orchard St Unit 2S,CHICAGO,IL,60614,365000,2,1.0,Lincoln Park,1200,6000,1910,12,304,220,Active,,,http://www.redfin.com/IL/Chicago/2681-N-Orchard-St-60614/unit-2S/home/13369212,MRED,10121233,N,Y,41.9314419,-87.6462989
MLS Listing,,Single Family Residential,6040 N Artesian Ave,CHICAGO,IL,60659,369000,4,2.0,West Ridge,2100,4090,1952,12,176,,Active,,,http://www.redfin.com/IL/Chicago/6040-N-Artesian-Ave-60659/home/13518566,MRED,10121122,N,Y,41.9916812,-87.6912203
MLS Listing,,Condo/Co-op,1811 W 17th St #302,CHICAGO,IL,60608,350000,2,2.5,Lower West Side,1258,3125,,12,278,323,Active,,,http://www.redfin.com/IL/Chicago/1811-W-17th-St-60608/unit-302/home/26818328,MRED,10121031,N,Y,41.8583603,-87.6716252
MLS Listing,,Condo/Co-op,1601 S Michigan Ave #108,CHICAGO,IL,60616,350000,2,2.0,Near South Side,1450,,,12,241,509,Active,,,http://www.redfin.com/IL/Chicago/1601-S-Michigan-Ave-60616/unit-108/home/12763057,MRED,10121027,N,Y,41.8601135,-87.6235334
MLS Listing,,Condo/Co-op,1416 W Superior St Unit 1F,CHICAGO,IL,60642,364875,2,2.5,West Town,1300,3125,,12,281,236,Active,,,http://www.redfin.com/IL/Chicago/1416-W-Superior-St-60642/unit-1F/home/13066787,MRED,10120957,N,Y,41.895477,-87.663076
MLS Listing,,Condo/Co-op,1369 W HUBBARD St Unit 2E,CHICAGO,IL,60642,359000,2,2.0,West Town,1362,,2002,12,264,230,Active,,,http://www.redfin.com/IL/Chicago/1369-W-Hubbard-St-60642/unit-2E/home/12752731,MRED,10120942,N,Y,41.8896786,-87.6615423
MLS Listing,,Condo/Co-op,340 W Diversey Pkwy #720,CHICAGO,IL,60657,369900,3,2.0,Lake View,1403,,1957,12,264,1039,Active,,,http://www.redfin.com/IL/Chicago/340-W-Diversey-Pkwy-60657/unit-720/home/13370172,MRED,10120656,N,Y,41.9333,-87.6385831
MLS Listing,,Multi-Family (2-4 Unit),1740 N Mason Ave,CHICAGO,IL,60639,355000,6,2.0,Austin,,3484,1933,12,,,Active,,,http://www.redfin.com/IL/Chicago/1740-N-Mason-Ave-60639/unit-2ND/home/13427486,MRED,10120485,N,Y,41.9122876,-87.7744145
MLS Listing,,Multi-Family (2-4 Unit),1701 N Keeler Ave,CHICAGO,IL,60639,369000,6,3.0,Humboldt Park,,3049,1901,12,,,Active,,,http://www.redfin.com/IL/Chicago/1701-N-Keeler-Ave-60639/unit-1/home/13421688,MRED,10120412,N,Y,41.9117812,-87.7309089
MLS Listing,,Condo/Co-op,933 W VAN BUREN St #514,CHICAGO,IL,60607,369000,2,2.0,Near West Side,1224,,2002,12,301,488,Active,,,http://www.redfin.com/IL/Chicago/933-W-Van-Buren-St-60607/unit-514/home/12687256,MRED,10120331,N,Y,41.8762261,-87.6512486
MLS Listing,,Condo/Co-op,6800 N California Ave Unit 1K,CHICAGO,IL,60645,374500,5,4.0,West Ridge,2300,,1969,13,163,786,Active,,,http://www.redfin.com/IL/Chicago/6800-N-California-Ave-60645/unit-1K/home/13586638,MRED,10108966,N,Y,42.0056529,-87.7002489
MLS Listing,,Condo/Co-op,873 N Larrabee St #703,CHICAGO,IL,60610,374900,2,2.0,Near North Side,1000,,2006,13,375,226,Active,,,http://www.redfin.com/IL/Chicago/873-N-Larrabee-St-60610/unit-703/home/18931943,MRED,10119454,N,Y,41.898639,-87.6426935
MLS Listing,,Multi-Family (5+ Unit),7936-38 S Essex Ave,CHICAGO,IL,60617,364999,12,6.0,South Chicago,,6098,1926,13,,,Active,,,http://www.redfin.com/IL/Chicago/7936-S-Essex-Ave-60617/home/146354137,MRED,10119388,N,Y,41.7506588,-87.5640801
MLS Listing,,Condo/Co-op,2441 N Fairfield Ave #1,CHICAGO,IL,60647,369000,2,1.5,Logan Square,1000,,,13,369,114,Active,,,http://www.redfin.com/IL/Chicago/2441-N-Fairfield-Ave-60647/unit-1/home/18935736,MRED,10119332,N,Y,41.926108,-87.6958872
MLS Listing,,Multi-Family (2-4 Unit),3641 S Honore St,CHICAGO,IL,60609,370000,5,3.0,McKinley Park,,2613,1885,14,,,Active,,,http://www.redfin.com/IL/Chicago/3641-S-Honore-St-60609/home/14076559,MRED,10119027,N,Y,41.8273725,-87.6711932
MLS Listing,,Single Family Residential,3129 W Birchwood Ave,CHICAGO,IL,60645,370000,3,2.0,West Ridge,1433,3689,1950,14,258,,Active,,,http://www.redfin.com/IL/Chicago/3129-W-Birchwood-Ave-60645/home/13602105,MRED,10118914,N,Y,42.0171187,-87.7079285
MLS Listing,,Condo/Co-op,4601 N Beacon St Unit 2C,CHICAGO,IL,60640,365000,3,2.0,Uptown,1500,,1901,14,243,259,Active,November-10-2018 12:00 PM,November-10-2018 02:00 PM,http://www.redfin.com/IL/Chicago/4601-N-Beacon-St-60640/unit-2C/home/13395530,MRED,10118293,N,Y,41.9655569,-87.663455
MLS Listing,,Single Family Residential,305 N Merrill St,PARK RIDGE,IL,60068,375000,3,3.0,Park Ridge,2080,6751,1926,16,180,,Active,,,http://www.redfin.com/IL/Park-Ridge/305-N-Merrill-St-60068/home/13650863,MRED,10117599,N,Y,42.0152637,-87.8215655
MLS Listing,,Condo/Co-op,4226 S Ellis Ave Unit 2N,CHICAGO,IL,60653,369900,3,2.5,Oakland,,,2018,17,,124,Active,,,http://www.redfin.com/IL/Chicago/4226-S-Ellis-Ave-60653/unit-2N/home/147712751,MRED,10117201,N,Y,41.8171807,-87.6021572
MLS Listing,,Condo/Co-op,211 W St Paul Ave Unit B,CHICAGO,IL,60614,350000,2,2.0,Lincoln Park,,,2006,17,,351,Active,,,http://www.redfin.com/IL/Chicago/211-W-St-Paul-Ave-60614/unit-B/home/26810089,MRED,10116983,N,Y,41.913463,-87.6354039
MLS Listing,,Condo/Co-op,5818 N WINTHROP Ave Unit 1B,CHICAGO,IL,60660,375000,2,2.0,Edgewater,1300,4500,2006,17,288,237,Active,,,http://www.redfin.com/IL/Chicago/5818-N-Winthrop-Ave-60660/unit-1B/home/45510683,MRED,10116870,N,Y,41.9878847,-87.658402
MLS Listing,,Condo/Co-op,900 N Lake Shore Dr #1603,CHICAGO,IL,60611,350000,2,2.0,Near North Side,1179,,1955,17,297,888,Active,,,http://www.redfin.com/IL/Chicago/900-N-Lake-Shore-Dr-60611/unit-1603/home/14120960,MRED,10116863,N,Y,41.8996853,-87.6196674
MLS Listing,,Multi-Family (2-4 Unit),4336 N Troy St,CHICAGO,IL,60618,369000,6,3.5,Irving Park,,3484,1921,17,,,Active,,,http://www.redfin.com/IL/Chicago/4336-N-Troy-St-60618/home/13489418,MRED,10116856,N,Y,41.9604607,-87.7072741
MLS Listing,,Condo/Co-op,1961 N FREMONT St Unit 3R,CHICAGO,IL,60614,369900,2,1.0,Lincoln Park,,,1930,17,,248,Active,,,http://www.redfin.com/IL/Chicago/1961-N-Fremont-St-60614/unit-3R/home/12612880,MRED,10116769,N,Y,41.9176889,-87.6506948
MLS Listing,,Condo/Co-op,3253 N Bay Ct,CHICAGO,IL,60618,375000,2,2.5,Avondale,,,2002,18,,365,Active,November-11-2018 12:00 PM,November-11-2018 02:00 PM,http://www.redfin.com/IL/Chicago/3253-N-Bay-Ct-60618/home/12702300,MRED,10116289,N,Y,41.94104,-87.695886
MLS Listing,,Multi-Family (2-4 Unit),7958 S Luella Ave,CHICAGO,IL,60617,369900,8,5.0,South Chicago,,5662,1923,18,,,Active,,,http://www.redfin.com/IL/Chicago/7958-S-Luella-Ave-60617/home/13219039,MRED,10116266,N,Y,41.7500066,-87.5701341
MLS Listing,,Single Family Residential,2510 N MCVICKER Ave,CHICAGO,IL,60639,359900,5,3.0,Belmont Cragin,1800,3628,,18,200,,Active,,,http://www.redfin.com/IL/Chicago/2510-N-McVicker-Ave-60639/home/13437297,MRED,10116150,N,Y,41.9260119,-87.7772749
MLS Listing,,Multi-Family (2-4 Unit),5215 W NORTH Ave,CHICAGO,IL,60639,359900,4,2.0,Austin,,3484,1923,18,,,Active,,,http://www.redfin.com/IL/Chicago/5215-W-North-Ave-60639/home/13282440,MRED,10116054,N,Y,41.90919,-87.756266
MLS Listing,,Condo/Co-op,3100 N Lake Shore Dr #1608,CHICAGO,IL,60657,357000,2,2.0,Lake View,1450,,1952,18,246,1050,Active,,,http://www.redfin.com/IL/Chicago/3100-N-Lake-Shore-Dr-60657/unit-1608/home/13370951,MRED,10115838,N,Y,41.9380386,-87.638027
MLS Listing,,Multi-Family (2-4 Unit),2134 N 73rd Ave,ELMWOOD PARK,IL,60707,369900,5,2.0,Elmwood Park,,4125,1927,18,,,Active,,,http://www.redfin.com/IL/Elmwood-Park/2134-73rd-Ave-60707/home/13522562,MRED,10115570,N,Y,41.9192173,-87.8088551
MLS Listing,,Condo/Co-op,2811 N BELL Ave #305,CHICAGO,IL,60618,355000,2,2.0,Logan Square,1412,,2007,18,251,401,Active,,,http://www.redfin.com/IL/Chicago/2811-N-Bell-Ave-60618/unit-305/home/26809362,MRED,10115562,N,Y,41.932621,-87.684319
MLS Listing,,Condo/Co-op,701 S WELLS St #2005,CHICAGO,IL,60607,354900,2,2.0,Loop,,,2002,18,,661,Active,,,http://www.redfin.com/IL/Chicago/701-S-Wells-St-60607/unit-2005/home/12694359,MRED,10115493,N,Y,41.873148,-87.63325
MLS Listing,,Condo/Co-op,1447 E 65th Pl #1,CHICAGO,IL,60637,375000,4,3.0,Woodlawn,2300,,2017,18,163,150,Active,November-10-2018 01:00 PM,November-10-2018 03:00 PM,http://www.redfin.com/IL/Chicago/1447-E-65th-Pl-60637/unit-1/home/146037057,MRED,10115422,N,Y,41.7757979,-87.5891163
MLS Listing,,Condo/Co-op,235 W Van Buren St #3916,CHICAGO,IL,60607,350000,2,2.0,Loop,1050,,2009,18,333,452,Active,,,http://www.redfin.com/IL/Chicago/235-W-Van-Buren-St-60607/unit-3916/home/147942114,MRED,10115328,N,Y,41.8765326,-87.6347559
MLS Listing,,Condo/Co-op,2309 W Chicago Ave #4,CHICAGO,IL,60622,369900,2,2.0,West Town,1400,,2002,18,264,150,Active,,,http://www.redfin.com/IL/Chicago/2309-W-Chicago-Ave-60622/unit-4/home/12687006,MRED,10115220,N,Y,41.8955754,-87.6848763
MLS Listing,,Condo/Co-op,1040 W Adams St #240,CHICAGO,IL,60607,350000,2,1.5,Near West Side,,,,19,,564,Active,,,http://www.redfin.com/IL/Chicago/1040-W-Adams-St-60607/unit-240/home/26817711,MRED,10114805,N,Y,41.8795309,-87.6537879
MLS Listing,,Multi-Family (2-4 Unit),4836 N AVERS Ave,CHICAGO,IL,60625,359000,5,3.0,Albany Park,,3844,1921,19,,,Active,,,http://www.redfin.com/IL/Chicago/4836-N-Avers-Ave-60625/home/22898641,MRED,10114648,N,Y,41.9693627,-87.7247845
MLS Listing,,Condo/Co-op,1811 W Addison St Unit 3E,CHICAGO,IL,60613,375000,2,2.0,North Center,1400,,2002,19,268,298,Active,,,http://www.redfin.com/IL/Chicago/1811-W-Addison-St-60613/unit-3E/home/147904296,MRED,10114307,N,Y,41.9467558,-87.6745233
MLS Listing,,Condo/Co-op,1210 W Roscoe St #1,CHICAGO,IL,60657,375000,2,2.0,Lake View,,,,19,,158,Active,,,http://www.redfin.com/IL/Chicago/1210-W-Roscoe-St-60657/unit-1/home/18917915,MRED,10114232,N,Y,41.9437037,-87.6596483
MLS Listing,,Condo/Co-op,400 W Ontario St #711,CHICAGO,IL,60654,350000,1,1.0,Near North Side,,,,19,,583,Active,,,http://www.redfin.com/IL/Chicago/400-W-Ontario-St-60654/unit-711/home/12561511,MRED,10114119,N,Y,41.8933952,-87.63908
MLS Listing,,Townhouse,860 W Lakeside Pl Unit A,CHICAGO,IL,60640,375000,3,2.5,Uptown,1800,,1988,20,208,294,Active,,,http://www.redfin.com/IL/Chicago/860-W-Lakeside-Pl-60640/unit-A/home/13394120,MRED,10113832,N,Y,41.968473,-87.6524868
MLS Listing,,Condo/Co-op,777 N Michigan Ave #1608,CHICAGO,IL,60611,369900,2,1.0,Near North Side,943,,1965,20,392,767,Active,,,http://www.redfin.com/IL/Chicago/777-N-Michigan-Ave-60611/unit-1608/home/14099429,MRED,10113662,N,Y,41.896415,-87.62385
MLS Listing,,Townhouse,825 E 52nd St Unit 5C,CHICAGO,IL,60615,369000,3,3.0,Hyde Park,1850,,1996,21,199,30,Active,,,http://www.redfin.com/IL/Chicago/825-E-52nd-St-60615/unit-5C/home/12711738,MRED,10112915,N,Y,41.8000311,-87.6051376
MLS Listing,,Multi-Family (5+ Unit),3029 W 21st Pl,CHICAGO,IL,60623,360000,11,5.0,South Lawndale,,3049,1895,21,,,Active,,,http://www.redfin.com/IL/Chicago/3029-W-21st-Pl-60623/home/13232086,MRED,10112802,N,Y,41.852471,-87.701463
MLS Listing,,Multi-Family (2-4 Unit),4829 S TRIPP Ave,CHICAGO,IL,60632,359900,8,5.0,Archer Heights,,3750,1927,21,,,Active,,,http://www.redfin.com/IL/Chicago/4829-S-Tripp-Ave-60632/unit-2F/home/14022321,MRED,10112662,N,Y,41.8050871,-87.729286
MLS Listing,,Single Family Residential,3522 W PIERCE Ave,CHICAGO,IL,60651,359900,3,3.0,Humboldt Park,,2831,,21,,,Active,,,http://www.redfin.com/IL/Chicago/3522-W-Pierce-Ave-60651/unit-1/home/13285686,MRED,10112487,N,Y,41.9093489,-87.7153905
MLS Listing,,Multi-Family (2-4 Unit),2910 W 40TH St,CHICAGO,IL,60632,369000,8,5.0,Brighton Park,,5856,,21,,,Active,,,http://www.redfin.com/IL/Chicago/2910-W-40th-St-60632/home/14037677,MRED,10112308,N,Y,41.8211307,-87.6975925
MLS Listing,,Condo/Co-op,1305 S Michigan Ave #612,CHICAGO,IL,60605,375000,2,2.0,Near South Side,1052,,2006,21,356,409,Active,,,http://www.redfin.com/IL/Chicago/1305-S-Michigan-Ave-60605/unit-612/home/18931214,MRED,10112159,N,Y,41.8654091,-87.6236899
MLS Listing,,Condo/Co-op,1110 W 15th St #219,CHICAGO,IL,60608,359900,2,2.0,Near West Side,1250,,,23,288,550,Active,,,http://www.redfin.com/IL/Chicago/1110-W-15th-St-60608/unit-219/home/39569980,MRED,10111529,N,Y,41.8618798,-87.6554866
MLS Listing,,Condo/Co-op,857 N La Salle Dr Unit GRDN,CHICAGO,IL,60610,369900,2,2.0,Near North Side,,,,23,,179,Active,,,http://www.redfin.com/IL/Chicago/857-N-LaSalle-Dr-60610/unit-GRDN/home/145658483,MRED,10111460,N,Y,41.8982899,-87.6324619
MLS Listing,,Townhouse,5044 S EVANS Ave,CHICAGO,IL,60615,359000,4,3.5,Grand Boulevard,2480,21574,2000,24,145,247,Active,,,http://www.redfin.com/IL/Chicago/5044-S-Evans-Ave-60615/home/12732858,MRED,10111129,N,Y,41.8026384,-87.6080661
MLS Listing,,Condo/Co-op,73 E Elm St Unit 14D,CHICAGO,IL,60611,359997,1,1.0,Near North Side,1200,,1928,24,300,930,Active,,,http://www.redfin.com/IL/Chicago/73-E-Elm-St-60611/unit-14D/home/14124046,MRED,10110550,N,Y,41.9029044,-87.6260035
MLS Listing,,Single Family Residential,5566 N Olcott Ave,CHICAGO,IL,60656,354000,3,2.0,Norwood Park,1127,4861,1943,24,314,,Active,,,http://www.redfin.com/IL/Chicago/5566-N-Olcott-Ave-60656/home/13556440,MRED,10110355,N,Y,41.981308,-87.8140011
MLS Listing,,Single Family Residential,7730 W PALATINE Ave,CHICAGO,IL,60631,365000,4,2.0,Norwood Park,,3750,1949,25,,,Active,,,http://www.redfin.com/IL/Chicago/7730-W-Palatine-Ave-60631/home/13568058,MRED,10109897,N,Y,41.9952412,-87.8202984
MLS Listing,,Condo/Co-op,5000 S East End Ave Unit 10A,CHICAGO,IL,60615,360000,3,2.5,Kenwood,1865,,1928,25,193,1770,Active,,,http://www.redfin.com/IL/Chicago/5000-S-East-End-Ave-60615/unit-10A/home/45515433,MRED,10109664,N,Y,41.8043149,-87.5857299
MLS Listing,,Condo/Co-op,6957 N Ashland Blvd Unit 1N,CHICAGO,IL,60626,375000,4,3.0,Rogers Park,2500,,2006,25,150,348,Active,,,http://www.redfin.com/IL/Chicago/6957-N-Ashland-Blvd-60626/unit-1N/home/147904939,MRED,10109544,N,Y,42.008269,-87.6697293
MLS Listing,,Single Family Residential,3325 N Osceola Ave,CHICAGO,IL,60634,375000,4,3.0,Dunning,,4800,1924,25,,,Active,,,http://www.redfin.com/IL/Chicago/3325-N-Osceola-Ave-60634/home/13541042,MRED,10109197,N,Y,41.9404797,-87.8127339
MLS Listing,,Condo/Co-op,2149 N Kenmore Ave #2,CHICAGO,IL,60047,369900,2,1.0,Lincoln Park,1100,6250,1929,25,336,216,Active,,,http://www.redfin.com/IL/Chicago/2149-N-Kenmore-Ave-60614/unit-2/home/146989392,MRED,10109180,N,Y,41.9213668,-87.6544671
MLS Listing,,Townhouse,5342 S Ingleside Ave,CHICAGO,IL,60615,372000,3,2.5,Hyde Park,1800,2160,1987,26,207,355,Active,,,http://www.redfin.com/IL/Chicago/5342-S-Ingleside-Ave-60615/home/13949920,MRED,10108575,N,Y,41.7981045,-87.6030337
MLS Listing,,Single Family Residential,1103 S HUMPHREY Ave,OAK PARK,IL,60304,365000,3,2.5,Oak Park,1296,3150,1914,26,282,,Active,,,http://www.redfin.com/IL/Oak-Park/1103-S-Humphrey-Ave-60304/home/13251104,MRED,10108561,N,Y,41.8688518,-87.7757376
MLS Listing,,Townhouse,2139 N Lincoln Ave,CHICAGO,IL,60614,350000,2,1.0,Lincoln Park,,959,1972,26,,240,Active,,,http://www.redfin.com/IL/Chicago/2139-N-Lincoln-Ave-60614/home/13349766,MRED,10108151,N,Y,41.921197,-87.642445
MLS Listing,,Single Family Residential,5343 W Carmen Ave,CHICAGO,IL,60630,374900,4,3.0,Jefferson Park,1800,3815,1928,26,208,,Active,,,http://www.redfin.com/IL/Chicago/5343-W-Carmen-Ave-60630/home/13498062,MRED,10107918,N,Y,41.973093,-87.761983
MLS Listing,,Condo/Co-op,111 W Maple St #2203,CHICAGO,IL,60610,365000,2,2.0,Near North Side,1100,,1991,26,332,624,Active,,,http://www.redfin.com/IL/Chicago/111-W-Maple-St-60610/unit-2203/home/12800849,MRED,10107827,N,Y,41.9013479,-87.6318349
MLS Listing,,Single Family Residential,7309 W Roscoe St,CHICAGO,IL,60634,350000,4,2.0,Dunning,1600,4068,1925,26,219,,Active,,,http://www.redfin.com/IL/Chicago/7309-W-Roscoe-St-60634/home/13541773,MRED,10107641,N,Y,41.9412353,-87.8097
MLS Listing,,Single Family Residential,3328 N Ridgeway Ave,CHICAGO,IL,60618,350000,5,2.0,Avondale,,3123,1958,27,,,Active,,,http://www.redfin.com/IL/Chicago/3328-N-Ridgeway-Ave-60618/home/13454035,MRED,10107597,N,Y,41.9418749,-87.7213888
MLS Listing,,Condo/Co-op,1646 W Berwyn Ave Unit 2E,CHICAGO,IL,60640,355000,2,2.5,Edgewater,1350,,1945,27,263,250,Active,,,http://www.redfin.com/IL/Chicago/1646-W-Berwyn-Ave-60640/unit-2E/home/12744573,MRED,10107469,N,Y,41.9780918,-87.6716169
MLS Listing,,Single Family Residential,3655 N Spaulding Ave,CHICAGO,IL,60618,365000,3,2.0,Irving Park,,3907,1920,27,,,Active,,,http://www.redfin.com/IL/Chicago/3655-N-Spaulding-Ave-60618/home/13455071,MRED,10107353,N,Y,41.9482419,-87.710007
MLS Listing,,Condo/Co-op,1307 S Wabash Ave #601,CHICAGO,IL,60605,350000,2,2.0,Near South Side,950,,,27,368,757,Active,,,http://www.redfin.com/IL/Chicago/1307-S-Wabash-Ave-60605/unit-601/home/12561451,MRED,10107089,N,Y,41.8654366,-87.6251979
MLS Listing,,Condo/Co-op,175 E DELAWARE Pl #5001,CHICAGO,IL,60611,350000,1,1.0,Near North Side,948,,1969,27,369,699,Active,,,http://www.redfin.com/IL/Chicago/175-E-Delaware-Pl-60611/unit-5001/home/14119262,MRED,10106947,N,Y,41.8989444,-87.6227945
MLS Listing,,Single Family Residential,7028 W SCHOOL St,CHICAGO,IL,60634,369000,4,3.0,Dunning,,3750,1950,27,,,Active,,,http://www.redfin.com/IL/Chicago/7028-W-School-St-60634/home/13469628,MRED,10106936,N,Y,41.9401296,-87.8024794
MLS Listing,,Condo/Co-op,1122 N Dearborn St Unit 8C,CHICAGO,IL,60610,375000,1,1.0,Near North Side,950,,2000,27,395,750,Active,,,http://www.redfin.com/IL/Chicago/1122-N-Dearborn-St-60610/unit-8C/home/12739125,MRED,10106674,N,Y,41.9025267,-87.630245
MLS Listing,,Condo/Co-op,1122 N Dearborn St Unit 10D,Chicago,IL,60610,375000,1,1.0,Near North Side,950,9375,1999,27,395,751,Active,,,http://www.redfin.com/IL/Chicago/1122-N-Dearborn-St-60610/unit-10D/home/12753698,MRED,10106653,N,Y,41.9025267,-87.630245
MLS Listing,,Single Family Residential,10073 S Prospect Ave,CHICAGO,IL,60643,359900,4,2.0,Beverly,3600,13599,,27,100,,Active,,,http://www.redfin.com/IL/Chicago/10073-S-Prospect-Ave-60643/home/13095098,MRED,10106583,N,Y,41.7100961,-87.662024
MLS Listing,,Single Family Residential,2919 N 74th Ave,ELMWOOD PARK,IL,60707,370000,4,3.0,Elmwood Park,2000,4125,1926,28,185,,Active,,,http://www.redfin.com/IL/Elmwood-Park/2919-N-74th-Ave-60707/unit-1/home/13537870,MRED,10106547,N,Y,41.9332931,-87.8111102
MLS Listing,,Condo/Co-op,3180 N Lake Shore Dr Unit 12B,CHICAGO,IL,60657,350000,2,2.0,Lake View,1153,,1958,28,304,941,Active,,,http://www.redfin.com/IL/Chicago/3180-N-Lake-Shore-Dr-60657/unit-12B/home/13371580,MRED,10106455,N,Y,41.9395522,-87.6392278
MLS Listing,,Single Family Residential,5908 N Austin Ave,CHICAGO,IL,60646,359000,5,3.0,Norwood Park,1978,4552,1952,28,181,,Active,,,http://www.redfin.com/IL/Chicago/5908-N-Austin-Ave-60646/home/13512022,MRED,10106431,N,Y,41.9886337,-87.7782357
MLS Listing,,Condo/Co-op,916 W Schubert Ave #3,CHICAGO,IL,60614,375000,2,2.0,Lincoln Park,1200,,1920,28,313,323,Active,,,http://www.redfin.com/IL/Chicago/916-W-Schubert-Ave-60614/unit-3/home/26809065,MRED,10106335,N,Y,41.9310925,-87.6522213
MLS Listing,,Single Family Residential,1364 W Huron St,CHICAGO,IL,60642,350000,4,2.0,West Town,1500,2208,1890,28,233,,Active,,,http://www.redfin.com/IL/Chicago/1364-W-Huron-St-60642/home/14103010,MRED,10106057,N,Y,41.8944943,-87.6620047
MLS Listing,,Condo/Co-op,1115 S PLYMOUTH Ct #117,CHICAGO,IL,60605,375000,2,2.5,Loop,1250,,1979,28,300,544,Active,,,http://www.redfin.com/IL/Chicago/1115-S-Plymouth-Ct-60605/unit-117/home/14091239,MRED,10105877,N,Y,41.8694834,-87.6280804
MLS Listing,,Single Family Residential,7535 N OSCEOLA Ave,CHICAGO,IL,60631,355000,3,2.0,Edison Park,1070,3750,1954,28,332,,Active,,,http://www.redfin.com/IL/Chicago/7535-N-Osceola-Ave-60631/home/12576523,MRED,10105819,N,Y,42.0180676,-87.8123883
MLS Listing,,Condo/Co-op,55 W Erie St Unit GE,CHICAGO,IL,60654,375000,2,1.5,Near North Side,1200,,1884,28,313,330,Active,,,http://www.redfin.com/IL/Chicago/55-W-Erie-St-60654/unit-GE/home/14101707,MRED,10105738,N,Y,41.893871,-87.6302468
MLS Listing,,Single Family Residential,5138 N Mobile Ave,CHICAGO,IL,60630,370000,4,3.0,Jefferson Park,1473,4961,1945,29,251,,Active,,,http://www.redfin.com/IL/Chicago/5138-N-Mobile-Ave-60630/home/13502608,MRED,10105475,N,Y,41.9750022,-87.7857676
MLS Listing,,Single Family Residential,5419 N Lovejoy Ave,CHICAGO,IL,60630,369000,3,2.5,Jefferson Park,2000,2252,1968,31,185,,Active,,,http://www.redfin.com/IL/Chicago/5419-N-Lovejoy-Ave-60630/home/13501682,MRED,10104691,N,Y,41.9799893,-87.7699433
MLS Listing,,Single Family Residential,2355 N Nordica Ave,CHICAGO,IL,60707,359900,4,1.5,Montclare,1350,10000,,31,267,,Active,,,http://www.redfin.com/IL/Chicago/2355-N-Nordica-Ave-60707/home/13432378,MRED,10104325,N,Y,41.922723,-87.8017111
MLS Listing,,Single Family Residential,2126 Dobson St,EVANSTON,IL,60202,350000,3,2.0,Evanston,1500,4373,1952,31,233,,Active,,,http://www.redfin.com/IL/Evanston/2126-Dobson-St-60202/home/13604611,MRED,10103779,N,Y,42.0199277,-87.7033478
MLS Listing,,Single Family Residential,5474 N NEWLAND Ave,CHICAGO,IL,60656,375000,3,2.5,Norwood Park,2446,3598,1949,31,153,,Active,,,http://www.redfin.com/IL/Chicago/5474-N-Newland-Ave-60656/home/13507121,MRED,10103759,N,Y,41.980852,-87.8002131
MLS Listing,,Single Family Residential,5415 W Eddy St,CHICAGO,IL,60641,369000,4,2.0,Portage Park,,4125,1923,32,,,Active,,,http://www.redfin.com/IL/Chicago/5415-W-Eddy-St-60641/home/13461288,MRED,10103263,N,Y,41.9447819,-87.7625145
MLS Listing,,Single Family Residential,6236 W CUYLER Ave,CHICAGO,IL,60634,369900,3,3.5,Portage Park,1188,3541,1911,32,311,,Active,,,http://www.redfin.com/IL/Chicago/6236-W-Cuyler-Ave-60634/home/13473657,MRED,10103014,N,Y,41.9540489,-87.783193
MLS Listing,,Townhouse,4712 N Lamon Ave Unit H,CHICAGO,IL,60630,375000,3,3.5,Portage Park,,,2005,32,,382,Active,,,http://www.redfin.com/IL/Chicago/4712-N-Lamon-Ave-60630/unit-H/home/147403848,MRED,10102973,N,Y,41.9678486,-87.7509846
MLS Listing,,Single Family Residential,2856 N Nordica Ave,CHICAGO,IL,60634,350000,5,3.0,Montclare,2400,4295,1949,32,146,,Active,,,http://www.redfin.com/IL/Chicago/2856-N-Nordica-Ave-60634/home/13435697,MRED,10102864,N,Y,41.932474,-87.8031708
MLS Listing,,Townhouse,858 W LAKESIDE Pl Unit A,CHICAGO,IL,60640,364900,3,2.5,Uptown,1800,,1988,32,203,296,Active,,,http://www.redfin.com/IL/Chicago/858-W-Lakeside-Pl-60640/unit-A/home/13395774,MRED,10102727,N,Y,41.9685149,-87.652473
MLS Listing,,Condo/Co-op,3200 N Lake Shore Dr #2501,CHICAGO,IL,60657,374500,2,2.0,Lake View,1250,,1962,32,300,1165,Active,,,http://www.redfin.com/IL/Chicago/3200-N-Lake-Shore-Dr-60657/unit-2501/home/13374613,MRED,10100553,N,Y,41.9406554,-87.6398821
MLS Listing,,Condo/Co-op,1359 N Noble St #403,CHICAGO,IL,60642,365000,2,2.0,West Town,1300,,,32,281,179,Active,,,http://www.redfin.com/IL/Chicago/1359-N-Noble-St-60642/unit-403/home/39547851,MRED,10102533,N,Y,41.906901,-87.662407
MLS Listing,,Condo/Co-op,3033 N SHERIDAN Rd #405,CHICAGO,IL,60657,375000,2,2.0,Lake View,,,1968,33,,502,Active,,,http://www.redfin.com/IL/Chicago/3033-N-Sheridan-Rd-60657/unit-405/home/26837593,MRED,10102118,N,Y,41.9374028,-87.6390683
MLS Listing,,Single Family Residential,6914 N McAlpin Ave,CHICAGO,IL,60646,369000,2,1.5,Forest Glen,,5623,1953,33,,,Active,,,http://www.redfin.com/IL/Chicago/6914-N-McAlpin-Ave-60646/home/13594734,MRED,10101951,N,Y,42.0077814,-87.7841537
MLS Listing,,Single Family Residential,4142 W Newport Ave,CHICAGO,IL,60641,375000,3,1.5,Irving Park,,3584,1907,33,,,Active,,,http://www.redfin.com/IL/Chicago/4142-W-Newport-Ave-60641/home/13456815,MRED,10101738,N,Y,41.944175,-87.730828
MLS Listing,,Condo/Co-op,1650 N Sedgwick St Unit 2S,CHICAGO,IL,60614,369900,2,1.0,Lincoln Park,,,1915,33,,225,Active,,,http://www.redfin.com/IL/Chicago/1650-N-Sedgwick-St-60614/unit-2S/home/13345858,MRED,10101276,N,Y,41.9126146,-87.638809
MLS Listing,,Condo/Co-op,360 W Illinois St #216,CHICAGO,IL,60654,359900,2,1.0,Near North Side,1100,,1915,34,327,539,Active,,,http://www.redfin.com/IL/Chicago/360-W-Illinois-St-60654/unit-216/home/12751822,MRED,10100917,N,Y,41.8910773,-87.6385332
MLS Listing,,Single Family Residential,7032 N Ottawa Ave,CHICAGO,IL,60631,354000,3,1.5,Edison Park,1202,4565,1960,34,295,,Active,,,http://www.redfin.com/IL/Chicago/7032-N-Ottawa-Ave-60631/home/13639219,MRED,10100901,N,Y,42.0088509,-87.8178795
MLS Listing,,Condo/Co-op,4812 N Hoyne Ave #4,CHICAGO,IL,60625,364900,2,2.0,Lincoln Square,,,1926,34,,300,Active,,,http://www.redfin.com/IL/Chicago/4812-N-Hoyne-Ave-60625/unit-4/home/18936248,MRED,10100697,N,Y,41.9694427,-87.6820191
MLS Listing,,Single Family Residential,3011 N Rutherford Ave,CHICAGO,IL,60634,375000,6,2.5,Montclare,2160,3750,1967,35,174,,Active,,,http://www.redfin.com/IL/Chicago/3011-N-Rutherford-Ave-60634/home/13433152,MRED,10099849,N,Y,41.9349346,-87.794105
MLS Listing,,Multi-Family (2-4 Unit),1223 W 32nd Pl,CHICAGO,IL,60608,350000,8,3.0,Bridgeport,,3000,1920,35,,,Active,,,http://www.redfin.com/IL/Chicago/1223-W-32nd-Pl-60608/home/14074982,MRED,10099844,N,Y,41.83491,-87.656867
MLS Listing,,Single Family Residential,5517 W Addison St,CHICAGO,IL,60641,368500,6,3.0,Portage Park,1800,3750,1924,35,205,,Active,,,http://www.redfin.com/IL/Chicago/5517-W-Addison-St-60641/home/13461713,MRED,10099807,N,Y,41.9456641,-87.765071
MLS Listing,,Condo/Co-op,30 E Huron St #2509,CHICAGO,IL,60611,375000,2,1.0,Near North Side,,,1980,35,,573,Active,,,http://www.redfin.com/IL/Chicago/30-E-Huron-St-60611/unit-2509/home/12648460,MRED,10099728,N,Y,41.8953761,-87.6263728
MLS Listing,,Multi-Family (2-4 Unit),4235 N Lawndale Ave,CHICAGO,IL,60618,359000,6,3.0,Irving Park,,4356,,35,,,Active,,,http://www.redfin.com/IL/Chicago/4235-Lawndale-Ave-60618/home/13484038,MRED,10099354,N,Y,41.9584697,-87.7200901
MLS Listing,,Single Family Residential,4014 N Menard Ave,CHICAGO,IL,60634,359900,4,2.5,Portage Park,2237,3750,1923,35,161,,Active,,,http://www.redfin.com/IL/Chicago/4014-N-Menard-Ave-60634/home/13472731,MRED,10099077,N,Y,41.9536828,-87.77224
MLS Listing,,Condo/Co-op,1215 N Greenview Ave Unit 1E,CHICAGO,IL,60642,375000,2,2.0,West Town,,,1889,35,,175,Active,,,http://www.redfin.com/IL/Chicago/1215-N-Greenview-Ave-60642/unit-1E/home/12668301,MRED,10098858,N,Y,41.9039484,-87.6647595
MLS Listing,,Single Family Residential,9516 S Seeley Ave,CHICAGO,IL,60643,357000,4,2.0,Beverly,1525,5000,1951,35,234,,Active,,,http://www.redfin.com/IL/Chicago/Undisclosed-address-60643/home/13100046,MRED,10098835,N,Y,41.7204948,-87.6738608
MLS Listing,,Multi-Family (2-4 Unit),5633 W 63rd Pl,CHICAGO,IL,60638,360000,8,3.0,Clearing,,3484,1969,36,,,Active,,,http://www.redfin.com/IL/Chicago/5633-W-63rd-Pl-60638/unit-1/home/13996074,MRED,10098495,N,Y,41.7768699,-87.7630202
MLS Listing,,Multi-Family (2-4 Unit),5100 S CENTRAL Ave,CHICAGO,IL,60638,360000,8,3.0,Garfield Ridge,,2613,1956,36,,,Active,,,http://www.redfin.com/IL/Chicago/5100-S-Central-Ave-60638/unit-1/home/14026495,MRED,10098490,N,Y,41.7998802,-87.7628221
MLS Listing,,Vacant Land,2718 W Francis Pl,CHICAGO,IL,60647,375000,,,Logan Square,,2178,,37,,,Active,,,http://www.redfin.com/IL/Chicago/2718-W-Francis-Pl-60647/home/17557253,MRED,10098107,N,Y,41.919051,-87.694991
MLS Listing,,Single Family Residential,5555 N Canfield Ave,CHICAGO,IL,60656,374000,3,2.0,Norwood Park,1767,294726960,1936,37,212,,Active,,,http://www.redfin.com/IL/Chicago/5555-N-Canfield-Ave-60656/home/13557367,MRED,10097991,N,Y,41.9811565,-87.8234782
MLS Listing,,Multi-Family (2-4 Unit),4626 W Mclean Ave,CHICAGO,IL,60639,359000,6,3.0,Belmont Cragin,,3049,1923,38,,,Active,,,http://www.redfin.com/IL/Chicago/4626-W-McLean-Ave-60639/home/13424887,MRED,10097185,N,Y,41.9180937,-87.7426342
MLS Listing,,Condo/Co-op,1964 N Howe St #1,CHICAGO,IL,60614,365000,3,1.0,Lincoln Park,,,1920,38,,462,Active,,,http://www.redfin.com/IL/Chicago/1964-N-Howe-St-60614/unit-1/home/13347798,MRED,10096753,N,Y,41.917978,-87.6451475
MLS Listing,,Vacant Land,4531 S Cottage Grove Ave,CHICAGO,IL,60653,375000,,,Kenwood,,3484,,39,,,Active,,,http://www.redfin.com/IL/Chicago/4531-S-Cottage-Grove-Ave-60653/home/40349730,MRED,10096445,N,Y,41.812228,-87.60616
MLS Listing,,Condo/Co-op,1833 N Bissell St #1,CHICAGO,IL,60614,365000,2,1.5,Lincoln Park,,,1985,39,,200,Active,,,http://www.redfin.com/IL/Chicago/1833-N-Bissell-St-60614/unit-1/home/13350560,MRED,10096136,N,Y,41.9147648,-87.6516968
MLS Listing,,Condo/Co-op,1802 S State St #305,CHICAGO,IL,60616,370000,2,2.0,Near South Side,,,2018,40,,111,Active,,,http://www.redfin.com/IL/Chicago/1802-S-State-St-60616/unit-305/home/147286359,MRED,10095269,N,Y,41.857599,-87.627658
MLS Listing,,Condo/Co-op,8727 W Bryn Mawr Ave #605,CHICAGO,IL,60631,350000,2,2.0,O'Hare,1720,,2004,40,203,366,Active,,,http://www.redfin.com/IL/Chicago/8727-W-Bryn-Mawr-Ave-60631/unit-605/home/12659907,MRED,10094535,N,Y,41.9804588,-87.8451893
MLS Listing,,Condo/Co-op,956 W Cuyler Ave Unit 3W,CHICAGO,IL,60613,375000,3,3.0,Uptown,,,,40,,285,Active,,,http://www.redfin.com/IL/Chicago/956-W-Cuyler-Ave-60613/unit-3W/home/144945013,MRED,10094462,N,Y,41.955716,-87.653261
MLS Listing,,Condo/Co-op,50 E 16th St #501,CHICAGO,IL,60616,374950,2,1.5,Near South Side,1227,,2008,41,306,482,Active,,,http://www.redfin.com/IL/Chicago/50-E-16th-St-60616/unit-501/home/13082742,MRED,10094087,N,Y,41.8603978,-87.6251552
MLS Listing,,Townhouse,1752 W 38th St,CHICAGO,IL,60609,369900,3,2.5,McKinley Park,,1440,2018,41,,,Active,,,http://www.redfin.com/IL/Chicago/1752-W-38th-St-60609/home/147265194,MRED,10093582,N,Y,41.8249683,-87.6694211
MLS Listing,,Condo/Co-op,130 N Garland Ct #1210,CHICAGO,IL,60602,364900,1,1.5,Loop,900,,2005,41,405,382,Active,,,http://www.redfin.com/IL/Chicago/130-N-Garland-Ct-60602/unit-1210/home/12647523,MRED,10093483,N,Y,41.8840059,-87.6257667
MLS Listing,,Condo/Co-op,2025 S INDIANA Ave #512,CHICAGO,IL,60616,350000,2,2.0,Near South Side,1200,,2006,41,292,449,Active,November-10-2018 01:00 PM,November-10-2018 03:00 PM,http://www.redfin.com/IL/Chicago/2025-S-Indiana-Ave-60616/unit-512/home/26821480,MRED,10093385,N,Y,41.8547704,-87.6218315
MLS Listing,,Vacant Land,2501 N Talman Ave,CHICAGO,IL,60647,375000,,,Logan Square,,3049,,41,,,Active,,,http://www.redfin.com/IL/Chicago/2501-N-Talman-Ave-60647/home/147260813,MRED,10093300,N,Y,41.926791,-87.693446
MLS Listing,,Single Family Residential,6343 W Waveland Ave,CHICAGO,IL,60634,365000,3,3.0,Dunning,,4360,1921,42,,,Active,,,http://www.redfin.com/IL/Chicago/6343-W-Waveland-Ave-60634/home/13466690,MRED,10092958,N,Y,41.9472997,-87.7855947
MLS Listing,,Condo/Co-op,2155 N SEMINARY Ave Unit C,CHICAGO,IL,60614,369900,2,1.0,Lincoln Park,1150,,1896,42,322,292,Active,,,http://www.redfin.com/IL/Chicago/2155-N-Seminary-Ave-60614/unit-C/home/13352515,MRED,10092744,N,Y,41.921446,-87.655608
MLS Listing,,Single Family Residential,9950 S Oakley Ave,CHICAGO,IL,60643,357500,5,3.0,Beverly,2400,6200,1949,42,149,,Active,,,http://www.redfin.com/IL/Chicago/9950-S-Oakley-Ave-60643/home/13097986,MRED,10092229,N,Y,41.7121463,-87.6796801
MLS Listing,,Condo/Co-op,208 W Washington St #1010,CHICAGO,IL,60606,369900,2,2.0,Loop,1265,,,44,292,846,Active,November-10-2018 01:00 PM,November-10-2018 02:30 PM,http://www.redfin.com/IL/Chicago/208-W-Washington-St-60606/unit-1010/home/12695427,MRED,10091311,N,Y,41.8835552,-87.6342031
MLS Listing,,Single Family Residential,6848 W Forest Preserve Dr,HARWOOD HEIGHTS,IL,60706,369900,5,2.0,Harwood Heights,2226,3750,1959,45,166,,Active,,,http://www.redfin.com/IL/Chicago/6848-W-Forest-Preserve-Dr-60706/home/13471905,MRED,10090656,N,Y,41.9578927,-87.7996815
MLS Listing,,Condo/Co-op,500 N Damen Ave #305,CHICAGO,IL,60622,365000,2,2.0,West Town,1228,8832,2006,46,297,392,Active,,,http://www.redfin.com/IL/Chicago/500-N-Damen-Ave-60622/unit-305/home/18921444,MRED,10089886,N,Y,41.891036,-87.6772106
MLS Listing,,Condo/Co-op,3660 N Lake Shore Dr #1501,CHICAGO,IL,60613,363000,2,2.0,Lake View,,,1988,46,,671,Active,,,http://www.redfin.com/IL/Chicago/3660-N-Lake-Shore-Dr-60613/unit-1501/home/12757877,MRED,10089645,N,Y,41.9495523,-87.645905
MLS Listing,,Condo/Co-op,3762 N FREMONT St Unit 1S,CHICAGO,IL,60613,369000,2,2.0,Lake View,1700,,,46,217,350,Active,,,http://www.redfin.com/IL/Chicago/3762-N-Fremont-St-60613/unit-1S/home/13382961,MRED,10089168,N,Y,41.950966,-87.652371
MLS Listing,,Multi-Family (2-4 Unit),5617 W 63rd Pl,CHICAGO,IL,60638,359000,9,6.0,Clearing,,3484,1915,46,,,Active,,,http://www.redfin.com/IL/Chicago/5617-W-63rd-Pl-60638/home/13996073,MRED,10089125,N,Y,41.7768998,-87.7623799
MLS Listing,,Condo/Co-op,444 W FULLERTON Pkwy #709,CHICAGO,IL,60614,369000,3,1.5,Lincoln Park,,,1972,46,,786,Active,,,http://www.redfin.com/IL/Chicago/444-W-Fullerton-Pkwy-60614/unit-709/home/12771807,MRED,10088818,N,Y,41.9258929,-87.6411247
MLS Listing,,Condo/Co-op,551 W Belden Ave Unit 1FW,CHICAGO,IL,60614,355000,2,1.0,Lincoln Park,,,1890,46,,236,Active,,,http://www.redfin.com/IL/Chicago/551-W-Belden-Ave-60614/unit-1FW/home/147131767,MRED,10088649,N,Y,41.923448,-87.643344
MLS Listing,,Single Family Residential,2911 W Estes Ave,CHICAGO,IL,60645,359900,5,2.0,West Ridge,2070,3937,1928,47,174,,Active,,,http://www.redfin.com/IL/Chicago/2911-W-Estes-Ave-60645/home/13586454,MRED,10088528,N,Y,42.0099173,-87.7026742
MLS Listing,,Multi-Family (5+ Unit),6405 S Spaulding Ave,CHICAGO,IL,60629,375000,8,6.0,Chicago Lawn,,5662,1922,47,,,Active,,,http://www.redfin.com/IL/Chicago/6405-S-Spaulding-Ave-60629/home/13991702,MRED,10088410,N,Y,41.776865,-87.7052918
MLS Listing,,Multi-Family (5+ Unit),2445 W 51st St,CHICAGO,IL,60632,375000,11,6.0,Gage Park,,3049,1964,47,,,Active,,,http://www.redfin.com/IL/Chicago/2445-W-51st-St-60632/home/14016797,MRED,10088406,N,Y,41.800868,-87.686154
MLS Listing,,Condo/Co-op,5228 N Winthrop Ave Unit 3A,CHICAGO,IL,60640,350000,3,2.0,Edgewater,,,,47,,445,Active,,,http://www.redfin.com/IL/Chicago/5228-N-Winthrop-Ave-60640/unit-3A/home/21802867,MRED,10088177,N,Y,41.9772026,-87.6580945
MLS Listing,,Vacant Land,3641 S MICHIGAN Ave,CHICAGO,IL,60653,364900,,,Douglas,,3484,,48,,,Active,,,http://www.redfin.com/IL/Chicago/3641-S-Michigan-Ave-60653/home/21876664,MRED,10086822,N,Y,41.8286894,-87.6226101
MLS Listing,,Single Family Residential,7528 N ODELL Ave,CHICAGO,IL,60631,351900,4,2.0,Edison Park,1286,3750,1953,48,274,,Active,,,http://www.redfin.com/IL/Chicago/7528-N-Odell-Ave-60631/home/13650936,MRED,10086609,N,Y,42.0179538,-87.8104681
MLS Listing,,Single Family Residential,158 N Humphrey Ave,OAK PARK,IL,60302,350000,6,3.5,Oak Park,3360,8550,1909,48,104,,Active,,,http://www.redfin.com/IL/Oak-Park/158-N-Humphrey-Ave-60302/home/13267123,MRED,10086191,N,Y,41.8896431,-87.7762372
MLS Listing,,Multi-Family (2-4 Unit),1758 N Troy St,CHICAGO,IL,60647,365000,4,2.0,Humboldt Park,,,1870,49,,,Active,,,http://www.redfin.com/IL/Chicago/1758-N-Troy-St-60647/home/13414990,MRED,10086025,N,Y,41.9136411,-87.7060135
MLS Listing,,Condo/Co-op,1600 S Prairie Ave #804,CHICAGO,IL,60616,375000,2,2.0,Near South Side,,,2006,49,,636,Active,,,http://www.redfin.com/IL/Chicago/1600-S-Prairie-Ave-60616/unit-804/home/45512760,MRED,10085357,N,Y,41.8604617,-87.6217542
MLS Listing,,Single Family Residential,7244 N Mcvicker Ave,CHICAGO,IL,60646,355000,3,2.0,Forest Glen,1113,4321,1947,49,319,,Active,,,http://www.redfin.com/IL/Chicago/7244-N-McVicker-Ave-60646/home/13595580,MRED,10077755,N,Y,42.0130803,-87.7780267
MLS Listing,,Single Family Residential,4924 N Ridgewood Ave,NORRIDGE,IL,60706,357000,3,2.5,Norridge,1298,5941,1966,50,275,,Active,,,http://www.redfin.com/IL/Norridge/4924-Ridgewood-Ave-60706/home/13558524,MRED,10084655,N,Y,41.9690471,-87.8431764
MLS Listing,,Condo/Co-op,749 W CALIFORNIA Ter #1,CHICAGO,IL,60657,370000,3,2.0,Lake View,1800,,1904,51,206,460,Active,November-10-2018 10:00 AM,November-10-2018 11:30 AM,http://www.redfin.com/IL/Chicago/749-W-California-Ter-60657/unit-1/home/13373087,MRED,10084365,N,Y,41.9385057,-87.6485655
MLS Listing,,Single Family Residential,1701 S Greenwood Ave,PARK RIDGE,IL,60068,369900,3,2.0,Park Ridge,1423,7148,1955,52,260,,Active,,,http://www.redfin.com/IL/Park-Ridge/1701-S-Greenwood-Ave-60068/home/13563627,MRED,10083704,N,Y,41.9893937,-87.8405667
MLS Listing,,Condo/Co-op,501 W 24th Pl #1012,CHICAGO,IL,60616,359000,3,2.0,Armour Square,1750,3125,1978,52,205,365,Active,,,http://www.redfin.com/IL/Chicago/501-W-24th-Pl-60616/unit-1012/home/14082237,MRED,10083482,N,Y,41.8477712,-87.6396027
MLS Listing,,Condo/Co-op,2930 N SHERIDAN Rd #912,CHICAGO,IL,60657,359000,2,2.0,Lake View,,,,53,,396,Active,,,http://www.redfin.com/IL/Chicago/2930-N-Sheridan-Rd-60657/unit-912/home/26808591,MRED,10082188,N,Y,41.935229,-87.6398035
MLS Listing,,Condo/Co-op,375 W Erie St #412,CHICAGO,IL,60654,369900,1,1.0,Near North Side,,,,54,,477,Active,,,http://www.redfin.com/IL/Chicago/375-W-Erie-St-60654/unit-412/home/12752822,MRED,10081335,N,Y,41.89369,-87.639378
MLS Listing,,Single Family Residential,1703 N MONTICELLO Ave,CHICAGO,IL,60647,369900,7,3.0,Humboldt Park,1200,2500,,54,308,,Active,,,http://www.redfin.com/IL/Chicago/1703-N-Monticello-Ave-60647/home/13418639,MRED,10081179,N,Y,41.9119814,-87.7175503
MLS Listing,,Condo/Co-op,1430 S Michigan Ave #506,CHICAGO,IL,60605,350000,2,2.0,Near South Side,1200,,2000,54,292,525,Active,,,http://www.redfin.com/IL/Chicago/1430-S-Michigan-Ave-60605/unit-506/home/12750689,MRED,10081124,N,Y,41.8632219,-87.6242565
MLS Listing,,Condo/Co-op,1720 S Michigan Ave #2008,CHICAGO,IL,60616,359900,2,2.0,Near South Side,1300,,2008,54,277,520,Active,,,http://www.redfin.com/IL/Chicago/1720-S-Michigan-Ave-60616/unit-2008/home/39571797,MRED,10080237,N,Y,41.8586026,-87.6246153
MLS Listing,,Multi-Family (2-4 Unit),6514 S Talman Ave,CHICAGO,IL,60629,359000,8,4.0,Chicago Lawn,,6098,1924,55,,,Active,,,http://www.redfin.com/IL/Chicago/6514-S-Talman-Ave-60629/unit-16/home/13987411,MRED,10079682,N,Y,41.774911,-87.689971
MLS Listing,,Multi-Family (2-4 Unit),1827 S RIDGEWAY Ave,CHICAGO,IL,60623,350000,9,5.5,North Lawndale,,3125,1898,56,,,Active,,,http://www.redfin.com/IL/Chicago/1827-S-Ridgeway-Ave-60623/home/13234442,MRED,10078442,N,Y,41.856262,-87.718465
MLS Listing,,Single Family Residential,2715 W Iowa St,CHICAGO,IL,60622,350000,3,1.0,West Town,1648,1524,1885,57,212,,Active,,,http://www.redfin.com/IL/Chicago/2715-W-Iowa-St-60622/home/13288344,MRED,10077149,N,Y,41.8973102,-87.6949937
MLS Listing,,Condo/Co-op,400 E Randolph St #1323,CHICAGO,IL,60601,353000,1,1.0,Loop,825,,1963,58,428,600,Active,,,http://www.redfin.com/IL/Chicago/400-E-Randolph-St-60601/unit-1323/home/14094599,MRED,10076635,N,Y,41.8848489,-87.6168112
MLS Listing,,Multi-Family (2-4 Unit),3417 N Lowell Ave,CHICAGO,IL,60641,359000,4,2.0,Irving Park,,3484,1921,59,,,Active,,,http://www.redfin.com/IL/Chicago/3417-N-Lowell-Ave-60641/home/13456987,MRED,10076417,N,Y,41.9431351,-87.7357106
MLS Listing,,Single Family Residential,1669 W 104th St,CHICAGO,IL,60643,375000,4,3.0,Beverly,2600,6751,1923,59,144,,Active,,,http://www.redfin.com/IL/Chicago/1669-W-104th-St-60643/home/13072358,MRED,10076281,N,Y,41.7047359,-87.664711
MLS Listing,,Condo/Co-op,1122 N Dearborn St Unit 9D,CHICAGO,IL,60610,359000,1,1.0,Near North Side,950,,1999,59,378,751,Active,,,http://www.redfin.com/IL/Chicago/1122-N-Dearborn-St-60610/unit-9D/home/12739182,MRED,10076126,N,Y,41.9025267,-87.630245
MLS Listing,,Single Family Residential,6028 Scott St,ROSEMONT,IL,60018,370000,3,1.0,Rosemont,1134,7200,1960,59,326,,Active,,,http://www.redfin.com/IL/Rosemont/6028-Scott-St-60018/home/13562415,MRED,10019285,N,Y,41.9891854,-87.8761869
MLS Listing,,Single Family Residential,5346 W PENSACOLA Ave,CHICAGO,IL,60641,365400,5,3.0,Portage Park,1212,3750,1922,59,301,,Active,,,http://www.redfin.com/IL/Chicago/5346-W-Pensacola-Ave-60641/home/13479462,MRED,10075809,N,Y,41.959847,-87.7616879
MLS Listing,,Multi-Family (2-4 Unit),2542 W Winnemac Ave,CHICAGO,IL,60625,369000,3,2.0,Lincoln Square,,3484,1912,59,,,Active,,,http://www.redfin.com/IL/Chicago/2542-W-Winnemac-Ave-60625/home/13490231,MRED,10075674,N,Y,41.9731243,-87.6930493
MLS Listing,,Condo/Co-op,720 S Dearborn St #1103,CHICAGO,IL,60605,375000,2,2.0,Loop,1700,,1916,60,221,1114,Active,,,http://www.redfin.com/IL/Chicago/720-S-Dearborn-St-60605/unit-1103/home/144948697,MRED,10074866,N,Y,41.873014,-87.6294449
MLS Listing,,Single Family Residential,5615 S MERRIMAC Ave,CHICAGO,IL,60638,367900,7,3.0,Garfield Ridge,2000,3750,1947,60,184,,Active,,,http://www.redfin.com/IL/Chicago/5615-S-Merrimac-Ave-60638/home/14004895,MRED,10074349,N,Y,41.790112,-87.7777745
MLS Listing,,Single Family Residential,6309 W Devon Ave,CHICAGO,IL,60646,365000,4,3.0,Norwood Park,1700,3750,1955,60,215,,Active,,,http://www.redfin.com/IL/Chicago/6309-W-Devon-Ave-60646/home/13512014,MRED,10074163,N,Y,41.9971344,-87.7856907
MLS Listing,,Single Family Residential,7210 N Wolcott Ave,CHICAGO,IL,60626,365000,3,2.5,Rogers Park,1144,2700,1914,60,319,,Active,,,http://www.redfin.com/IL/Chicago/7210-N-Wolcott-Ave-60626/home/13572847,MRED,10073778,N,Y,42.0129692,-87.6783963
MLS Listing,,Condo/Co-op,4150 N Kenmore Ave #101,CHICAGO,IL,60613,364900,2,2.0,Uptown,,,2007,61,,252,Active,,,http://www.redfin.com/IL/Chicago/4150-N-Kenmore-Ave-60613/unit-101/home/13063567,MRED,10073461,N,Y,41.9579831,-87.6565223
MLS Listing,,Vacant Land,2400 W 14th St,CHICAGO,IL,60608,350000,,,Near West Side,,10454,,61,,,Active,,,http://www.redfin.com/IL/Chicago/2400-W-14th-St-60608/home/146979332,MRED,10073393,N,Y,41.8631436,-87.6862279
MLS Listing,,Condo/Co-op,2851 N Southport Ave Unit A,CHICAGO,IL,60657,369900,2,1.5,Lake View,,,1992,61,,178,Active,,,http://www.redfin.com/IL/Chicago/2851-N-Southport-Ave-60657/unit-A/home/13363831,MRED,10073065,N,Y,41.9339522,-87.6631984
MLS Listing,,Condo/Co-op,400 E OHIO St #3802,CHICAGO,IL,60611,365000,1,1.5,Near North Side,1100,,1982,61,332,859,Active,,,http://www.redfin.com/IL/Chicago/400-E-Ohio-St-60611/unit-3802/home/145674355,MRED,10072356,N,Y,41.8929548,-87.6171338
MLS Listing,,Single Family Residential,3537 S Rockwell St,CHICAGO,IL,60632,350000,4,2.0,Brighton Park,1677,3049,1895,65,209,,Active,,,http://www.redfin.com/IL/Chicago/3537-S-Rockwell-St-60632/home/14126281,MRED,10069473,N,Y,41.8291021,-87.6896416
MLS Listing,,Single Family Residential,3908 W 99TH St,EVERGREEN PARK,IL,60805,350000,4,3.0,Evergreen Park,2444,5000,2005,65,143,,Active,,,http://www.redfin.com/IL/Chicago/3908-W-99th-St-60805/home/13164399,MRED,10069413,N,Y,41.713445,-87.71916
MLS Listing,,Condo/Co-op,4802 S Dorchester Ave Unit 1S,CHICAGO,IL,60615,359000,3,3.0,Kenwood,,,,67,,556,Active,,,http://www.redfin.com/IL/Chicago/4802-S-Dorchester-Ave-60615/unit-1S/home/13950570,MRED,10038351,N,Y,41.807684,-87.592311
MLS Listing,,Single Family Residential,5004 W Wilson Ave,CHICAGO,IL,60630,374900,5,2.0,Portage Park,1837,4125,1917,67,204,,Active,,,http://www.redfin.com/IL/Chicago/5004-W-Wilson-Ave-60630/home/13478407,MRED,10067606,N,Y,41.9645525,-87.7528446
MLS Listing,,Condo/Co-op,2332 S MICHIGAN Ave #305,CHICAGO,IL,60616,369000,2,2.0,Near South Side,1600,,,67,231,380,Active,,,http://www.redfin.com/IL/Chicago/2332-S-Michigan-Ave-60616/unit-305/home/21828997,MRED,10067516,N,Y,41.8499823,-87.6241526
MLS Listing,,Condo/Co-op,1000 N Lake Shore Dr #1401,CHICAGO,IL,60611,374900,2,2.0,Near North Side,1250,,1953,68,300,1040,Active,,,http://www.redfin.com/IL/Chicago/1000-N-Lake-Shore-Dr-60611/unit-1401/home/13082252,MRED,10066336,N,Y,41.9012119,-87.6246453
MLS Listing,,Condo/Co-op,2121 W Armitage Ave #1,CHICAGO,IL,60647,350000,4,2.0,Logan Square,1800,,1910,69,194,309,Active,,,http://www.redfin.com/IL/Chicago/2121-W-Armitage-Ave-60647/unit-1/home/22994274,MRED,10065182,N,Y,41.9174687,-87.680991
MLS Listing,,Multi-Family (2-4 Unit),7726 S Kingston Ave,CHICAGO,IL,60649,369900,12,7.0,South Shore,,4356,,69,,,Active,,,http://www.redfin.com/IL/Chicago/7726-S-Kingston-Ave-60649/unit-1/home/13216518,MRED,10064757,N,Y,41.7545395,-87.5630491
MLS Listing,,Condo/Co-op,431 S Dearborn St #1502,CHICAGO,IL,60605,355000,3,2.0,Loop,1600,,1891,70,222,946,Active,,,http://www.redfin.com/IL/Chicago/431-S-Dearborn-St-60605/unit-1502/home/12815540,MRED,10064639,N,Y,41.8760707,-87.6289774
MLS Listing,,Single Family Residential,5212 S Merrimac Ave,CHICAGO,IL,60638,369900,4,3.0,Garfield Ridge,2325,4164,1994,70,159,,Active,,,http://www.redfin.com/IL/Chicago/5212-S-Merrimac-Ave-60638/home/14028799,MRED,10064252,N,Y,41.797467,-87.7785815
MLS Listing,,Multi-Family (2-4 Unit),3602 S King Dr,CHICAGO,IL,60653,375000,4,5.5,Douglas,,4356,1893,70,,,Active,,,http://www.redfin.com/IL/Chicago/3602-S-King-Dr-60653/home/14071301,MRED,10064145,N,Y,41.829153,-87.617744
MLS Listing,,Townhouse,4926 S Drexel Blvd Unit C,CHICAGO,IL,60615,369900,4,3.5,Kenwood,2800,,2007,71,132,125,Active,,,http://www.redfin.com/IL/Chicago/4926-S-Drexel-Blvd-60615/unit-C/home/12989330,MRED,10063240,N,Y,41.80514,-87.6047059
MLS Listing,,Multi-Family (2-4 Unit),3006 N Kilpatrick Ave,CHICAGO,IL,60641,357000,6,3.0,Belmont Cragin,,3484,1921,72,,,Active,,,http://www.redfin.com/IL/Chicago/3006-N-Kilpatrick-Ave-60641/unit-1/home/13445853,MRED,10062967,N,Y,41.9355133,-87.7446242
MLS Listing,,Condo/Co-op,2917 N Damen Ave Unit 2N,CHICAGO,IL,60618,375000,2,2.0,North Center,,,2000,72,,107,Active,,,http://www.redfin.com/IL/Chicago/2917-N-Damen-Ave-60618/unit-2N/home/39925411,MRED,10062846,N,Y,41.9346598,-87.6778852
MLS Listing,,Single Family Residential,4533 N MEADE Ave,CHICAGO,IL,60630,374900,4,3.0,Portage Park,2100,3781,1923,74,179,,Active,,,http://www.redfin.com/IL/Chicago/4533-N-Meade-Ave-60630/home/13475080,MRED,10061135,N,Y,41.9631474,-87.7791964
MLS Listing,,Condo/Co-op,235 W Van Buren St #2911,CHICAGO,IL,60607,350000,2,1.0,Loop,976,,2009,74,359,395,Active,,,http://www.redfin.com/IL/Chicago/235-W-Van-Buren-St-60607/unit-2911/home/146824326,MRED,10060376,N,Y,41.8765326,-87.6347559
MLS Listing,,Single Family Residential,5217 N Newland Ave,CHICAGO,IL,60656,369000,4,2.0,Norwood Park,,4451,1954,75,,,Active,,,http://www.redfin.com/IL/Chicago/5217-N-Newland-Ave-60656/home/13507207,MRED,10060146,N,Y,41.9761188,-87.7995985
MLS Listing,,Single Family Residential,6723 N Mozart St,CHICAGO,IL,60645,350000,3,1.5,West Ridge,1743,4059,1939,75,201,,Active,,,http://www.redfin.com/IL/Chicago/6723-N-Mozart-St-60645/home/13583205,MRED,10059462,N,Y,42.0037486,-87.7007686
MLS Listing,,Single Family Residential,4155 N Kilbourn Ave,CHICAGO,IL,60641,375000,3,1.5,Irving Park,2000,3149,1957,76,188,,Active,,,http://www.redfin.com/IL/Chicago/4155-N-Kilbourn-Ave-60641/home/13480714,MRED,10059038,N,Y,41.95697,-87.740264
MLS Listing,,Condo/Co-op,3200 N Lake Shore Dr #2504,CHICAGO,IL,60657,375000,2,2.0,Lake View,1185,,1968,76,316,1092,Active,,,http://www.redfin.com/IL/Chicago/3200-N-Lake-Shore-Dr-60657/unit-2504/home/13375296,MRED,10058113,N,Y,41.9406554,-87.6398821
MLS Listing,,Condo/Co-op,1143 S Plymouth Ct #121,CHICAGO,IL,60605,369900,2,2.5,Loop,,,1980,77,,576,Active,,,http://www.redfin.com/IL/Chicago/1143-S-Plymouth-Ct-60605/unit-121/home/14091010,MRED,10057754,N,Y,41.86876,-87.6280882
MLS Listing,,Condo/Co-op,3406 W MEDILL Ave #1,CHICAGO,IL,60647,369900,3,2.0,Logan Square,1546,,1911,77,239,237,Active,,,http://www.redfin.com/IL/Chicago/3406-W-Medill-Ave-60647/unit-1/home/12597068,MRED,10057585,N,Y,41.9239153,-87.7124325
MLS Listing,,Single Family Residential,7229 N Oconto Ave,CHICAGO,IL,60631,369000,4,1.5,Edison Park,1335,4499,1950,77,276,,Active,,,http://www.redfin.com/IL/Chicago/7229-N-Oconto-Ave-60631/home/13650207,MRED,10057348,N,Y,42.0125619,-87.8075877
MLS Listing,,Single Family Residential,4917 N KOSTNER Ave,CHICAGO,IL,60630,370000,4,3.0,Albany Park,1400,3811,1920,79,264,,Active,,,http://www.redfin.com/IL/Chicago/4917-N-Kostner-Ave-60630/home/13494414,MRED,10056348,N,Y,41.9705075,-87.7377108
MLS Listing,,Single Family Residential,2856 N Francisco Ave,CHICAGO,IL,60618,364900,3,2.0,Avondale,1724,3990,1909,79,212,,Active,,,http://www.redfin.com/IL/Chicago/2856-N-Francisco-Ave-60618/home/13451408,MRED,10056203,N,Y,41.9337872,-87.7005412
MLS Listing,,Single Family Residential,2715 W Adams St,CHICAGO,IL,60612,369000,3,3.5,East Garfield Park,2400,3123,2008,80,154,,Active,November-11-2018 12:30 PM,November-11-2018 02:00 PM,http://www.redfin.com/IL/Chicago/2715-W-Adams-St-60612/home/18953808,MRED,10055902,N,Y,41.8781498,-87.6944546
MLS Listing,,Multi-Family (2-4 Unit),3310 S MAY St,CHICAGO,IL,60608,361900,4,3.0,Bridgeport,,3125,1883,80,,,Active,,,http://www.redfin.com/IL/Chicago/3310-S-May-St-60608/home/14074452,MRED,10055883,N,Y,41.8339084,-87.6549926
MLS Listing,,Single Family Residential,5226 W Belle Plaine Ave,CHICAGO,IL,60641,374999,4,2.0,Portage Park,1515,3750,1914,81,248,,Active,,,http://www.redfin.com/IL/Chicago/5226-W-Belle-Plaine-Ave-60641/home/13478689,MRED,10054731,N,Y,41.9553114,-87.7584007
MLS Listing,,Single Family Residential,1905 N Natoma Ave,CHICAGO,IL,60707,369000,4,2.5,Austin,,3659,1948,81,,,Active,,,http://www.redfin.com/IL/Chicago/1905-N-Natoma-Ave-60707/home/13431710,MRED,10054395,N,Y,41.9147305,-87.7909931
MLS Listing,,Single Family Residential,5928 N MERRIMAC Ave,CHICAGO,IL,60646,369000,3,1.5,Norwood Park,1309,3720,1951,81,282,,Active,,,http://www.redfin.com/IL/Chicago/5928-N-Merrimac-Ave-60646/home/13511947,MRED,10054341,N,Y,41.9892917,-87.784269
MLS Listing,,Condo/Co-op,420 E Waterside Dr #1502,CHICAGO,IL,60601,369000,1,1.0,Loop,826,,,81,447,456,Active,,,http://www.redfin.com/IL/Chicago/420-E-Waterside-Dr-60601/unit-1502/home/18924474,MRED,10054177,N,Y,41.8871935,-87.6161158
MLS Listing,,Single Family Residential,2944 N Nashville Ave,CHICAGO,IL,60634,359900,4,2.0,Belmont Cragin,1852,4996,1989,81,194,,Active,,,http://www.redfin.com/IL/Chicago/2944-N-Nashville-Ave-60634/home/13433917,MRED,10053655,N,Y,41.9340761,-87.7907434
MLS Listing,,Condo/Co-op,235 W Van Buren St #3403,CHICAGO,IL,60607,350000,2,2.0,Loop,1100,,2009,83,318,432,Active,,,http://www.redfin.com/IL/Chicago/235-W-Van-Buren-St-60607/unit-3403/home/113098150,MRED,10051874,N,Y,41.8765326,-87.6347559
MLS Listing,,Multi-Family (2-4 Unit),1821 N Francisco Ave,CHICAGO,IL,60647,360000,2,3.0,Logan Square,,2613,1885,83,,,Active,,,http://www.redfin.com/IL/Chicago/1821-N-Francisco-Ave-60647/home/13416435,MRED,10051671,N,Y,41.9145665,-87.6989881
MLS Listing,,Condo/Co-op,1357 E MADISON PARK Ave #1,CHICAGO,IL,60615,374900,4,3.0,Kenwood,3600,,1920,84,104,800,Active,,,http://www.redfin.com/IL/Chicago/1357-E-Madison-Park-60615/unit-1/home/144596861,MRED,10050604,N,Y,41.8028135,-87.5929676
MLS Listing,,Condo/Co-op,1962 N Howe St #3,CHICAGO,IL,60614,374500,2,1.0,Lincoln Park,1150,,,84,326,412,Active,,,http://www.redfin.com/IL/Chicago/1962-N-Howe-St-60614/unit-3/home/13347529,MRED,10050046,N,Y,41.917978,-87.6451475
MLS Listing,,Multi-Family (5+ Unit),6819 indiana Ave,CHICAGO,IL,60627,355000,33,15.0,Undisclosed,,10890,1925,85,,,Active,,,http://www.redfin.com/IL/Chicago/6819-S-Indiana-Ave-60637/home/146651633,MRED,10049623,N,Y,41.7704223,-87.6199116
MLS Listing,,Condo/Co-op,5901 N Sheridan Rd Unit 2B,CHICAGO,IL,60660,359000,2,2.0,Edgewater,1600,,1966,85,224,670,Active,,,http://www.redfin.com/IL/Chicago/5901-N-Sheridan-Rd-60660/unit-2B/home/13410645,MRED,10049586,N,Y,41.9893776,-87.6547605
MLS Listing,,Condo/Co-op,33 W Ontario St Unit 30I,CHICAGO,IL,60654,355000,2,1.5,Near North Side,1001,,2003,87,355,676,Active,,,http://www.redfin.com/IL/Chicago/33-W-Ontario-St-60654/unit-30I/home/39549303,MRED,10048512,N,Y,41.893042,-87.629247
MLS Listing,,Condo/Co-op,6065 N Ridge Ave #1,CHICAGO,IL,60660,370000,3,3.0,Edgewater,2300,3500,2006,87,161,250,Active,,,http://www.redfin.com/IL/Chicago/6065-N-Ridge-Ave-60660/unit-1/home/18915083,MRED,10047755,N,Y,41.9919381,-87.6738613
MLS Listing,,Condo/Co-op,400 E RANDOLPH St #2528,CHICAGO,IL,60601,359500,1,1.0,Loop,850,,1963,88,423,634,Active,,,http://www.redfin.com/IL/Chicago/400-E-Randolph-St-60601/unit-2528/home/14095107,MRED,10047334,N,Y,41.8848489,-87.6168112
MLS Listing,,Condo/Co-op,1601 S Halsted St #501,CHICAGO,IL,60608,355000,2,2.0,Lower West Side,1697,,2002,89,209,508,Active,,,http://www.redfin.com/IL/Chicago/1601-S-Halsted-St-60608/unit-501/home/12694430,MRED,10045970,N,Y,41.8597675,-87.646457
MLS Listing,,Condo/Co-op,480 N McCLURG Ct #1006,CHICAGO,IL,60611,369000,1,1.0,Near North Side,750,,1991,89,492,528,Active,,,http://www.redfin.com/IL/Chicago/480-N-McClurg-Ct-60611/unit-1006/home/145019965,MRED,10044988,N,Y,41.8902897,-87.6181293
MLS Listing,,Condo/Co-op,1525 S Sangamon St Unit 317-P,CHICAGO,IL,60608,374999,2,2.0,Near West Side,1150,,,91,326,498,Active,,,http://www.redfin.com/IL/Chicago/1525-S-Sangamon-St-60608/unit-317-P/home/12679336,MRED,10042193,N,Y,41.860832,-87.6498137
MLS Listing,,Condo/Co-op,1845 S Michigan Ave #1705,CHICAGO,IL,60616,354900,2,2.0,Near South Side,1025,,2003,94,346,378,Active,,,http://www.redfin.com/IL/Chicago/1845-S-Michigan-Ave-60616/unit-1705/home/12687799,MRED,10041280,N,Y,41.8565619,-87.6234585
MLS Listing,,Single Family Residential,4816 N Leonard Dr,NORRIDGE,IL,60706,374500,4,2.5,Norridge,,5401,1972,94,,,Active,,,http://www.redfin.com/IL/Norridge/4816-N-Leonard-Dr-60706/home/13558536,MRED,10040504,N,Y,41.9670795,-87.845594
MLS Listing,,Condo/Co-op,221 E Walton Pl Unit 12B,CHICAGO,IL,60611,350000,3,2.0,Near North Side,1400,,1982,95,250,1156,Active,,,http://www.redfin.com/IL/Chicago/221-E-Walton-Pl-60611/unit-12B/home/147760701,MRED,10039365,N,Y,41.8997584,-87.6209711
MLS Listing,,Condo/Co-op,1712 W Wilson Ave Unit 3W,CHICAGO,IL,60640,367900,2,2.5,Uptown,1400,,1896,95,263,300,Active,,,http://www.redfin.com/IL/Chicago/1712-W-Wilson-Ave-60640/unit-3W/home/13392217,MRED,10038978,N,Y,41.9654152,-87.6715591
MLS Listing,,Condo/Co-op,2300 W Wabansia Ave #129,CHICAGO,IL,60647,370000,2,1.5,West Town,1200,,1906,95,308,420,Active,,,http://www.redfin.com/IL/Chicago/2300-W-Wabansia-Ave-60647/unit-129/home/13355903,MRED,10038713,N,Y,41.9128684,-87.6844693
MLS Listing,,Multi-Family (2-4 Unit),2415 N Lotus Ave,CHICAGO,IL,60639,359900,4,3.0,Belmont Cragin,,3049,1921,96,,,Active,,,http://www.redfin.com/IL/Chicago/2415-N-Lotus-Ave-60639/home/13440272,MRED,10038226,N,Y,41.9245261,-87.7620628
MLS Listing,,Townhouse,5208 S Berkeley Ave,CHICAGO,IL,60615,369900,3,1.5,Hyde Park,1460,800,1996,96,253,252,Active,,,http://www.redfin.com/IL/Chicago/5208-S-Berkeley-Ave-60615/home/12750828,MRED,10038169,N,Y,41.8005295,-87.6006269
MLS Listing,,Multi-Family (2-4 Unit),4053 N LARAMIE Ave,CHICAGO,IL,60641,365000,4,2.0,Portage Park,,4356,1903,96,,,Active,,,http://www.redfin.com/IL/Chicago/4053-N-Laramie-Ave-60641/unit-2/home/13477722,MRED,10037211,N,Y,41.9548958,-87.7569397
MLS Listing,,Single Family Residential,1646 N Avers Ave,CHICAGO,IL,60647,360000,7,3.0,Humboldt Park,1638,3754,,97,220,,Active,,,http://www.redfin.com/IL/Chicago/1646-N-Avers-Ave-60647/home/13418632,MRED,10036467,N,Y,41.9113913,-87.722976
MLS Listing,,Condo/Co-op,6122 S Greenwood Ave Unit 1S,CHICAGO,IL,60637,350000,4,3.0,Woodlawn,,,,99,,434,Active,,,http://www.redfin.com/IL/Chicago/6122-S-Greenwood-Ave-60637/unit-1S/home/26824048,MRED,10034420,N,Y,41.7834127,-87.5997373
MLS Listing,,Condo/Co-op,1660 N LaSalle Blvd #302,CHICAGO,IL,60614,375000,2,2.0,Lincoln Park,1112,,1972,101,337,692,Active,,,http://www.redfin.com/IL/Chicago/1660-N-LaSalle-Dr-60614/unit-302/home/13342348,MRED,10033433,N,Y,41.9122525,-87.63395
MLS Listing,,Condo/Co-op,21 W Chestnut St #905,CHICAGO,IL,60610,370000,2,1.5,Near North Side,1045,,1999,101,354,779,Active,,,http://www.redfin.com/IL/Chicago/21-W-Chestnut-St-60610/unit-905/home/12768693,MRED,10032592,N,Y,41.8976711,-87.6288248
MLS Listing,,Condo/Co-op,221 E Cullerton St #808,CHICAGO,IL,60616,360000,1,1.0,Near South Side,977,,,101,368,401,Active,,,http://www.redfin.com/IL/Chicago/221-E-Cullerton-St-60616/unit-808/home/12706684,MRED,10032465,N,Y,41.8552372,-87.6211717
MLS Listing,,Single Family Residential,1150 S Humphrey Ave,OAK PARK,IL,60304,360000,5,3.5,Oak Park,,5336,1904,102,,,Active,,,http://www.redfin.com/IL/Oak-Park/1150-S-Humphrey-Ave-60304/home/13251079,MRED,10031329,N,Y,41.8671351,-87.7751995
MLS Listing,,Condo/Co-op,728 W Jackson Blvd #521,CHICAGO,IL,60661,350000,2,1.5,Near West Side,1125,,1927,103,311,602,Active,,,http://www.redfin.com/IL/Chicago/728-W-Jackson-Blvd-60661/unit-521/home/12814837,MRED,10030310,N,Y,41.878409,-87.6449713
MLS Listing,,Condo/Co-op,1601 S Halsted St #301,CHICAGO,IL,60608,374500,3,2.0,Lower West Side,1697,,2002,103,221,475,Active,,,http://www.redfin.com/IL/Chicago/1601-S-Halsted-St-60608/unit-301/home/12707932,MRED,10029843,N,Y,41.8595266,-87.6463838
MLS Listing,,Condo/Co-op,1928 W Addison St Unit 1S,CHICAGO,IL,60613,370000,3,2.0,North Center,1700,6250,,107,218,375,Active,,,http://www.redfin.com/IL/Chicago/1928-W-Addison-St-60613/unit-1S/home/26808027,MRED,10026306,N,Y,41.9469584,-87.6772963
MLS Listing,,Condo/Co-op,913 W Van Buren St Unit 3C,CHICAGO,IL,60607,350000,2,1.0,Near West Side,1200,,1915,108,292,341,Active,,,http://www.redfin.com/IL/Chicago/913-W-Van-Buren-St-60607/unit-3C/home/144931248,MRED,10024889,N,Y,41.8762762,-87.6503712
MLS Listing,,Condo/Co-op,1366 N Dearborn St Unit 14B,CHICAGO,IL,60610,355000,1,1.0,Near North Side,976,,1926,110,364,896,Active,,,http://www.redfin.com/IL/Chicago/1366-N-Dearborn-St-60610/unit-14B/home/14114490,MRED,10023119,N,Y,41.9077082,-87.6306498
MLS Listing,,Single Family Residential,5553 N Olcott Ave,CHICAGO,IL,60656,359500,3,1.5,Norwood Park,,4944,1943,110,,,Active,,,http://www.redfin.com/IL/Chicago/5553-N-Olcott-Ave-60656/home/13555702,MRED,10023100,N,Y,41.9809919,-87.8136555
MLS Listing,,Single Family Residential,2826 N 74TH Ave,ELMWOOD PARK,IL,60707,351900,5,3.0,Elmwood Park,1672,4251,1945,110,210,,Active,,,http://www.redfin.com/IL/Elmwood-Park/2826-N-74th-Ave-60707/home/13538270,MRED,10022774,N,Y,41.9318228,-87.811697
MLS Listing,,Single Family Residential,4818 N Chester Ave,NORRIDGE,IL,60706,369900,3,2.5,Norridge,1325,5401,1971,112,279,,Active,,,http://www.redfin.com/IL/Norridge/4818-N-Chester-Ave-60706/home/13558849,MRED,10020208,N,Y,41.9672742,-87.8394538
MLS Listing,,Condo/Co-op,1460 N Sandburg Ter Unit 1602A,CHICAGO,IL,60610,359000,2,2.0,Near North Side,1100,,1964,112,326,899,Active,,,http://www.redfin.com/IL/Chicago/1460-N-Sandburg-Ter-60610/unit-1602A/home/14116672,MRED,10019917,N,Y,41.9092557,-87.6323365
MLS Listing,,Single Family Residential,1327 N Hamlin Ave,CHICAGO,IL,60651,350000,4,3.0,Humboldt Park,1346,3100,1900,112,260,,Active,,,http://www.redfin.com/IL/Chicago/1327-N-Hamlin-Ave-60651/home/12557989,MRED,10019357,N,Y,41.905303,-87.7212733
MLS Listing,,Condo/Co-op,3660 N Lake Shore Dr #1601,CHICAGO,IL,60613,350000,2,2.0,Lake View,1240,,1987,114,282,672,Active,,,http://www.redfin.com/IL/Chicago/3660-N-Lake-Shore-Dr-60613/unit-1601/home/12754770,MRED,10018197,N,Y,41.9495523,-87.645905
MLS Listing,,Single Family Residential,3631 S CALUMET Ave,CHICAGO,IL,60653,365000,3,3.5,Douglas,2000,1080,1885,115,183,,Active,,,http://www.redfin.com/IL/Chicago/3631-S-Calumet-Ave-60653/home/14072147,MRED,10016780,N,Y,41.8283451,-87.6181558
MLS Listing,,Single Family Residential,7329 N Oconto Ave,CHICAGO,IL,60631,359000,4,2.0,Edison Park,,3750,1953,116,,,Active,,,http://www.redfin.com/IL/Chicago/7329-N-Oconto-Ave-60631/home/13651350,MRED,10016092,N,Y,42.0144169,-87.8075109
MLS Listing,,Condo/Co-op,1432 W ERIE St Unit 2R,CHICAGO,IL,60622,374900,2,1.5,West Town,,,1998,116,,175,Active,,,http://www.redfin.com/IL/Chicago/1432-W-Erie-St-60642/unit-2R/home/12789091,MRED,10015640,N,Y,41.8936169,-87.663642
MLS Listing,,Condo/Co-op,1345 S Wabash Ave #1012,CHICAGO,IL,60605,350000,2,2.0,Near South Side,,,2015,118,,354,Active,,,http://www.redfin.com/IL/Chicago/1345-S-Wabash-Ave-60605/unit-1012/home/81560878,MRED,10012865,N,Y,41.8644184,-87.625483
MLS Listing,,Single Family Residential,5252 W Warner Ave,CHICAGO,IL,60641,374900,4,2.0,Portage Park,1712,3125,1915,119,219,,Active,,,http://www.redfin.com/IL/Chicago/5252-W-Warner-Ave-60641/home/13477882,MRED,10011686,N,Y,41.956137547,-87.75940329
MLS Listing,,Single Family Residential,6118 W Lawrence Ave,CHICAGO,IL,60630,365000,5,2.0,Portage Park,1317,4704,1949,120,277,,Active,,,http://www.redfin.com/IL/Chicago/6118-W-Lawrence-Ave-60630/home/13476434,MRED,10009948,N,Y,41.9677998,-87.7804702
MLS Listing,,Multi-Family (5+ Unit),3434 W Marquette Rd,CHICAGO,IL,60629,374900,8,7.0,Chicago Lawn,,6566,1920,130,,,Active,,,http://www.redfin.com/IL/Chicago/3434-W-Marquette-Rd-60629/home/13989411,MRED,10001356,N,Y,41.771854,-87.709127
MLS Listing,,Multi-Family (2-4 Unit),517 W 43RD St,Chicago,IL,60609,370000,3,2.0,New City,,3125,1917,130,,,Active,,,http://www.redfin.com/IL/Chicago/517-W-43rd-St-60609/home/13959887,MRED,10000657,N,Y,41.8160875,-87.6392085
MLS Listing,,Single Family Residential,3045 W Chase Ave,CHICAGO,IL,60645,364770,3,1.5,West Ridge,1912,3968,1939,131,191,,Active,,,http://www.redfin.com/IL/Chicago/3045-W-Chase-Ave-60645/home/13603022,MRED,09999851,N,Y,42.0135665,-87.7062734
MLS Listing,,Condo/Co-op,2140 N Lincoln Ave #5306,CHICAGO,IL,60614,355000,2,2.0,Lincoln Park,,,,132,,335,Active,,,http://www.redfin.com/IL/Chicago/2140-N-Lincoln-Ave-60614/unit-5306/home/12600236,MRED,09998820,N,Y,41.9210752,-87.6430221
MLS Listing,,Condo/Co-op,850 N Dewitt Pl Unit 13GI,CHICAGO,IL,60611,362500,2,2.0,Near North Side,1400,,1955,132,259,1006,Active,,,http://www.redfin.com/IL/Chicago/850-N-Dewitt-Pl-60611/unit-13G-I/home/103995948,MRED,09991455,N,Y,41.898258,-87.620689
MLS Listing,,Single Family Residential,4109 N Laramie Ave,CHICAGO,IL,60641,350000,4,2.0,Portage Park,2000,5079,1910,135,175,,Active,,,http://www.redfin.com/IL/Chicago/4109-N-Laramie-Ave-60641/home/13476376,MRED,09995906,N,Y,41.9555153,-87.7569397
MLS Listing,,Single Family Residential,2280 Sprucewood Ave,DES PLAINES,IL,60018,365000,3,2.5,Des Plaines,2356,9239,1989,136,155,,Active,,,http://www.redfin.com/IL/Des-Plaines/2280-Sprucewood-Ave-60018/home/13644276,MRED,09995430,N,Y,42.0104761,-87.9064714
MLS Listing,,Multi-Family (2-4 Unit),4511 N Kasson Ave,CHICAGO,IL,60630,368000,4,3.0,Albany Park,,3250,1952,136,,,Active,,,http://www.redfin.com/IL/Chicago/4511-N-Kasson-Ave-60630/home/13482457,MRED,09995227,N,Y,41.9633727,-87.7311712
MLS Listing,,Single Family Residential,5025 W Oakdale Ave,CHICAGO,IL,60641,369900,4,2.5,Belmont Cragin,1152,3750,1921,136,321,,Active,,,http://www.redfin.com/IL/Chicago/5025-W-Oakdale-Ave-60641/home/13441193,MRED,09995039,N,Y,41.9339788,-87.7526716
MLS Listing,,Multi-Family (2-4 Unit),2952 N Mason Ave,CHICAGO,IL,60634,359000,5,3.0,Belmont Cragin,,3750,1945,136,,,Active,,,http://www.redfin.com/IL/Chicago/2952-N-Mason-Ave-60634/home/13437890,MRED,09994609,N,Y,41.9344928,-87.7751611
MLS Listing,,Single Family Residential,4429 N Keystone Ave,CHICAGO,IL,60630,350000,4,3.0,Albany Park,,3497,1906,138,,,Active,,,http://www.redfin.com/IL/Chicago/4429-N-Keystone-Ave-60630/home/22915987,MRED,09991322,N,Y,41.961816,-87.7287859
MLS Listing,,Condo/Co-op,4757 N Malden St #3,CHICAGO,IL,60640,359999,2,2.0,Uptown,1475,,,142,244,201,Active,,,http://www.redfin.com/IL/Chicago/4757-N-Malden-St-60640/unit-3/home/146060258,MRED,09987925,N,Y,41.968824,-87.662457
MLS Listing,,Multi-Family (2-4 Unit),1934 W Touhy Ave,CHICAGO,IL,60626,373000,5,2.0,Rogers Park,,4356,1907,143,,,Active,,,http://www.redfin.com/IL/Chicago/1934-W-Touhy-Ave-60626/home/13572687,MRED,09987171,N,Y,42.0127998,-87.6795902
MLS Listing,,Condo/Co-op,30 E Huron St #2102,CHICAGO,IL,60611,375000,2,1.0,Near North Side,900,,1980,143,417,535,Active,,,http://www.redfin.com/IL/Chicago/30-E-Huron-St-60611/unit-2102/home/12662871,MRED,09986381,N,Y,41.8953761,-87.6263728
MLS Listing,,Multi-Family (5+ Unit),8142 S Maryland Ave,CHICAGO,IL,60619,360000,30,12.0,Chatham,,6250,1924,145,,,Active,,,http://www.redfin.com/IL/Chicago/8142-S-Maryland-Ave-60619/home/146042774,MRED,09984184,N,Y,41.7463234,-87.6040934
MLS Listing,,Multi-Family (5+ Unit),107 W 80th St,Chicago,IL,60620,357797,6,6.0,Chatham,,4662,1924,145,,,Active,,,http://www.redfin.com/IL/Chicago/107-W-80th-St-60620/home/13228272,MRED,09984045,N,Y,41.7489354,-87.6273297
MLS Listing,,Condo/Co-op,1631 W Warren Blvd #1,CHICAGO,IL,60612,365000,2,2.0,Near West Side,1600,,,147,228,237,Active,,,http://www.redfin.com/IL/Chicago/1631-W-Warren-Blvd-60612/unit-1/home/12740925,MRED,09981402,N,Y,41.8820786,-87.6681178
MLS Listing,,Condo/Co-op,480 N McClurg Ct Unit 420-N,CHICAGO,IL,60611,360000,2,2.0,Near North Side,1200,,1991,150,300,585,Active,,,http://www.redfin.com/IL/Chicago/480-N-McClurg-Ct-60611/unit-420-N/home/52637750,MRED,09978550,N,Y,41.8902845,-87.618133
MLS Listing,,Condo/Co-op,2614 N Clybourn Ave #408,CHICAGO,IL,60614,370000,2,2.0,Lincoln Park,1200,,,152,308,325,Active,,,http://www.redfin.com/IL/Chicago/2614-N-Clybourn-Ave-60614/unit-408/home/13358818,MRED,09975151,N,Y,41.9286698,-87.6754497
MLS Listing,,Multi-Family (2-4 Unit),11038 S Spaulding Ave,CHICAGO,IL,60655,350000,4,2.0,Mount Greenwood,,4791,1920,158,,,Active,,,http://www.redfin.com/IL/Chicago/11038-S-Spaulding-Ave-60655/home/13152913,MRED,09968261,N,Y,41.6921842,-87.7036558
MLS Listing,,Condo/Co-op,3200 N LAKE SHORE Dr #706,CHICAGO,IL,60657,375000,2,2.0,Lake View,1250,,1966,158,300,1081,Active,,,http://www.redfin.com/IL/Chicago/3200-N-Lake-Shore-Dr-60657/unit-706/home/13374032,MRED,09968208,N,Y,41.9406554,-87.6398821
MLS Listing,,Single Family Residential,4427 N Merrimac Ave,CHICAGO,IL,60630,358800,4,3.0,Portage Park,1870,4660,1913,167,192,,Active,,,http://www.redfin.com/IL/Chicago/4427-N-Merrimac-Ave-60630/home/13474402,MRED,09959047,N,Y,41.9611345,-87.7828845
MLS Listing,,Multi-Family (5+ Unit),8205 S Drexel Ave,CHICAGO,IL,60619,354900,9,6.0,Chatham,,5556,1925,170,,,Active,,,http://www.redfin.com/IL/Chicago/8205-S-Drexel-Ave-60619/home/13223125,MRED,09956514,N,Y,41.7455682,-87.6022249
MLS Listing,,Single Family Residential,6012 W 55th St,Chicago,IL,60638,364900,3,2.0,Garfield Ridge,2322,4748,1953,173,157,,Active,,,http://www.redfin.com/IL/Chicago/6012-W-55th-St-60638/home/14026513,MRED,09952533,N,Y,41.7927142,-87.7727589
MLS Listing,,Townhouse,834 E 45th St,Chicago,IL,60653,365000,3,3.0,Kenwood,1644,,2007,173,222,100,Active,,,http://www.redfin.com/IL/Chicago/834-E-45th-St-60653/home/26823894,MRED,09951775,N,Y,41.8133443,-87.6052748
MLS Listing,,Townhouse,329 W 25th Pl Unit D,Chicago,IL,60616,368000,3,2.5,Armour Square,1845,1250,1999,178,199,,Active,,,http://www.redfin.com/IL/Chicago/329-W-25th-Pl-60616/unit-D/home/12708173,MRED,09947526,N,Y,41.846255,-87.635762
MLS Listing,,Condo/Co-op,1000 N Lake Shore Dr #309,CHICAGO,IL,60611,369900,2,2.0,Near North Side,1200,,1953,185,308,1155,Active,,,http://www.redfin.com/IL/Chicago/1000-N-Lake-Shore-Dr-60611/unit-309/home/14122290,MRED,09939552,N,Y,41.9012119,-87.6246453
MLS Listing,,Single Family Residential,6960 N Central Ave,CHICAGO,IL,60646,374000,3,2.0,Forest Glen,,4883,1970,186,,,Active,,,http://www.redfin.com/IL/Chicago/6960-N-Central-Ave-60646/home/13590922,MRED,09937208,N,Y,42.0081277,-87.7620532
MLS Listing,,Single Family Residential,4257 N Lowell Ave,CHICAGO,IL,60641,357500,5,2.0,Irving Park,2400,6804,1922,209,149,,Active,,,http://www.redfin.com/IL/Chicago/4257-N-Lowell-Ave-60641/home/13482076,MRED,09911933,N,Y,41.9588742,-87.7366722
MLS Listing,,Condo/Co-op,900 N KINGSBURY St #877,CHICAGO,IL,60610,359900,2,2.0,Near North Side,,,2002,214,,698,Active,,,http://www.redfin.com/IL/Chicago/900-N-Kingsbury-St-60610/unit-877/home/12676464,MRED,09906026,N,Y,41.8987748,-87.6447692
MLS Listing,,Condo/Co-op,125 S Jefferson St #909,CHICAGO,IL,60661,350000,1,1.5,Near West Side,1051,,2003,223,333,574,Active,,,http://www.redfin.com/IL/Chicago/125-S-Jefferson-St-60661/unit-909/home/12679232,MRED,09896605,N,Y,41.8799167,-87.6417716
MLS Listing,,Vacant Land,100 E 75TH St,CHICAGO,IL,60637,350000,,,Greater Grand Crossing,,26571,,233,,,Active,,,http://www.redfin.com/IL/Chicago/100-E-75th-St-60619/home/145145915,MRED,09887839,N,Y,41.7584579,-87.6212085
