SALE TYPE,SOLD DATE,PROPERTY TYPE,ADDRESS,CITY,STATE,ZIP,PRICE,BEDS,BATHS,LOCATION,SQUARE FEET,LOT SIZE,YEAR BUILT,DAYS ON MARKET,$/SQUARE FEET,HOA/MONTH,STATUS,NEXT OPEN HOUSE START TIME,NEXT OPEN HOUSE END TIME,URL (SEE http://www.redfin.com/buy-a-home/comparative-market-analysis FOR INFO ON PRICING),SOURCE,MLS#,FAVORITE,INTERESTED,LATITUDE,LONGITUDE
MLS Listing,,Condo/Co-op,1487 N Clybourn Ave Unit F,CHICAGO,IL,60610,549900,3,2.5,Near North Side,,1166,1997,3,,385,Active,,,http://www.redfin.com/IL/Chicago/1487-N-Clybourn-Ave-60610/unit-F/home/12738843,MRED,10128321,N,Y,41.9086584,-87.6452735
MLS Listing,,Condo/Co-op,1324 N Greenview Ave #1,CHICAGO,IL,60642,515000,3,2.5,West Town,2000,,2001,4,258,243,Active,,,http://www.redfin.com/IL/Chicago/1324-N-Greenview-Ave-60642/unit-1/home/12697578,MRED,10127130,N,Y,41.9059027,-87.6654043
MLS Listing,,Condo/Co-op,100 E 14th St #2204,CHICAGO,IL,60605,542000,2,2.0,Near South Side,1348,,2008,11,402,599,Active,,,http://www.redfin.com/IL/Chicago/100-E-14th-St-60605/unit-2204/home/39558193,MRED,10122110,N,Y,41.8645524,-87.6236878
MLS Listing,,Condo/Co-op,827 N Rockwell St #1,CHICAGO,IL,60622,549900,3,3.0,West Town,,,2015,11,,216,Active,,,http://www.redfin.com/IL/Chicago/827-N-Rockwell-St-60622/unit-1/home/13287100,MRED,10121932,N,Y,41.8965728,-87.6915572
MLS Listing,,Single Family Residential,6921 N Oriole Ave,CHICAGO,IL,60631,550000,4,2.5,Edison Park,2600,7348,1920,18,212,,Active,,,http://www.redfin.com/IL/Chicago/6921-N-Oriole-Ave-60631/home/13637072,MRED,10116000,N,Y,42.0066915,-87.8161899
MLS Listing,,Single Family Residential,1406 W Chase Ave,CHICAGO,IL,60626,519900,5,3.0,Rogers Park,,5998,1901,26,,,Active,,,http://www.redfin.com/IL/Chicago/1406-W-Chase-Ave-60626/home/13575394,MRED,10105797,N,Y,42.0141382,-87.6663969
MLS Listing,,Condo/Co-op,333 N Jefferson St #405,CHICAGO,IL,60661,549900,2,2.0,Near West Side,1386,,1999,32,397,514,Active,,,http://www.redfin.com/IL/Chicago/333-N-Jefferson-St-60661/unit-405/home/22984222,MRED,10102460,N,Y,41.8878211,-87.6423935
MLS Listing,,Condo/Co-op,2428 N Southport Ave #2,CHICAGO,IL,60614,539000,2,2.0,Lincoln Park,1650,,2000,35,327,311,Active,,,http://www.redfin.com/IL/Chicago/2428-N-Southport-Ave-60614/unit-2/home/13360568,MRED,10087027,N,Y,41.9260755,-87.663685
MLS Listing,,Condo/Co-op,2418 N Southport Ave #2,CHICAGO,IL,60614,535000,2,2.0,Lincoln Park,,,2006,42,,109,Active,,,http://www.redfin.com/IL/Chicago/2418-N-Southport-Ave-60614/unit-2/home/12593296,MRED,10088028,N,Y,41.9257934,-87.6636823
MLS Listing,,Townhouse,5230 S Cornell Ave Unit J,CHICAGO,IL,60615,524900,4,3.5,Hyde Park,,,1988,52,,258,Active,,,http://www.redfin.com/IL/Chicago/5230-S-Cornell-Ave-60615/unit-J/home/13947718,MRED,10083737,N,Y,41.8002926,-87.5860376
MLS Listing,,Condo/Co-op,2353 W Belden Ave Unit 4S,CHICAGO,IL,60647,535000,3,2.0,Logan Square,,,2008,109,,268,Active,,,http://www.redfin.com/IL/Chicago/2353-W-Belden-Ave-60647/unit-4S/home/18605064,MRED,10023635,N,Y,41.9232049,-87.6873027
MLS Listing,,Single Family Residential,3412 N Tripp Ave,CHICAGO,IL,60641,525000,4,2.5,Irving Park,3000,3811,1914,109,175,,Active,,,http://www.redfin.com/IL/Chicago/3412-N-Tripp-Ave-60641/home/13457155,MRED,10020838,N,Y,41.9430973,-87.7337871
MLS Listing,,Condo/Co-op,3024 N Lincoln Ave Unit A,CHICAGO,IL,60657,534900,2,2.0,Lake View,,12500,1996,138,,303,Active,,,http://www.redfin.com/IL/Chicago/3024-N-Lincoln-Ave-60657/unit-A/home/13366617,MRED,09991759,N,Y,41.9364561,-87.664654
MLS Listing,,Single Family Residential,2263 Westview Dr,DES PLAINES,IL,60018,539000,5,4.0,Des Plaines,3340,9350,2004,138,161,,Active,,,http://www.redfin.com/IL/Des-Plaines/2263-Westview-Dr-60018/home/12688195,MRED,09991255,N,Y,42.011706,-87.9028499
MLS Listing,,Condo/Co-op,2626 N Lakeview Ave #1903,CHICAGO,IL,60614,549900,3,2.5,Lincoln Park,1490,,1968,1,369,1431,Active,,,http://www.redfin.com/IL/Chicago/2626-N-Lakeview-Ave-60614/unit-1903/home/12570946,MRED,10130557,N,Y,41.9303286,-87.6398531
MLS Listing,,Single Family Residential,6215 N Le Mai Ave,CHICAGO,IL,60646,529900,5,3.0,Forest Glen,1458,4373,1976,1,363,,Active,,,http://www.redfin.com/IL/Chicago/6215-N-Le-Mai-Ave-60646/home/13513351,MRED,10130549,N,Y,41.9942145,-87.7587467
MLS Listing,,Condo/Co-op,3016 W BELMONT Ave Unit 3W,CHICAGO,IL,60618,539500,3,2.0,Avondale,1900,,2018,1,284,225,Active,,,http://www.redfin.com/IL/Chicago/3016-W-Belmont-Ave-60618/unit-3W/home/145870035,MRED,10130062,N,Y,41.939618,-87.703427
MLS Listing,,Single Family Residential,1746 W 104th Pl,CHICAGO,IL,60643,549900,5,3.0,Beverly,3594,5545,1920,3,153,,Active,,,http://www.redfin.com/IL/Chicago/1746-W-104th-Pl-60643/home/13072775,MRED,10129246,N,Y,41.7041773,-87.666474
MLS Listing,,Single Family Residential,3842 N Paris Ave,CHICAGO,IL,60634,529000,5,3.0,Dunning,2520,3720,2018,3,210,,Active,,,http://www.redfin.com/IL/Chicago/3842-N-Paris-Ave-60634/home/13546697,MRED,10129216,N,Y,41.9498475,-87.8309711
MLS Listing,,Single Family Residential,3804 S Wabash Ave,CHICAGO,IL,60653,529000,4,3.5,Douglas,3000,1616,1885,3,176,,Active,,,http://www.redfin.com/IL/Chicago/3804-S-Wabash-Ave-60653/home/14071296,MRED,10129175,N,Y,41.825328,-87.625168
MLS Listing,,Condo/Co-op,1560 N Sandburg Ter Unit 4315J,CHICAGO,IL,60610,510000,2,2.0,Near North Side,1240,,1971,3,411,1079,Active,,,http://www.redfin.com/IL/Chicago/1560-N-Sandburg-Ter-60610/unit-4315J/home/14113629,MRED,10129050,N,Y,41.9105614,-87.6327897
MLS Listing,,Multi-Family (2-4 Unit),2110 N Newland Ave,CHICAGO,IL,60707,529900,6,4.5,Austin,,18730,1960,3,,,Active,,,http://www.redfin.com/IL/Chicago/2110-N-Newland-Ave-60707/home/13431879,MRED,10128929,N,Y,41.9185284,-87.7991375
MLS Listing,,Single Family Residential,6772 N Dowagiac Ave,CHICAGO,IL,60646,549000,5,2.5,Forest Glen,2055,6499,1938,3,267,,Active,,,http://www.redfin.com/IL/Chicago/6772-N-Dowagiac-Ave-60646/home/13590475,MRED,10128924,N,Y,42.0035717,-87.7644751
MLS Listing,,Condo/Co-op,1404 N Paulina St Unit A,CHICAGO,IL,60622,550000,3,2.5,West Town,1950,,,3,282,270,Active,,,http://www.redfin.com/IL/Chicago/1404-N-Paulina-St-60622/unit-A/home/14107554,MRED,10128791,N,Y,41.907054,-87.670256
MLS Listing,,Single Family Residential,4824 W Cullom Ave,CHICAGO,IL,60641,550000,3,3.5,Portage Park,897,4373,1906,3,613,,Active,,,http://www.redfin.com/IL/Chicago/4824-W-Cullom-Ave-60641/home/13477000,MRED,10128741,N,Y,41.9591071,-87.7485569
MLS Listing,,Townhouse,751 W 15th St,CHICAGO,IL,60607,549900,3,2.5,Near West Side,1998,,2007,3,275,264,Active,,,http://www.redfin.com/IL/Chicago/751-W-15th-St-60607/home/26819452,MRED,10128660,N,Y,41.8610222,-87.6459655
MLS Listing,,Condo/Co-op,1211 S PRAIRIE Ave #3103,CHICAGO,IL,60605,515000,1,1.0,Near South Side,1002,,2007,3,514,512,Active,,,http://www.redfin.com/IL/Chicago/1211-S-Prairie-Ave-60605/unit-3103/home/21786645,MRED,10128523,N,Y,41.8668747,-87.621408
MLS Listing,,Single Family Residential,5954 W Patterson Ave,CHICAGO,IL,60634,545000,5,4.0,Portage Park,3105,4626,1922,3,176,,Active,,,http://www.redfin.com/IL/Chicago/5954-W-Patterson-Ave-60634/home/13466535,MRED,10128494,N,Y,41.9469064,-87.7762372
MLS Listing,,Multi-Family (2-4 Unit),3917 N Spaulding Ave,CHICAGO,IL,60618,549000,8,3.0,Irving Park,,3810,1912,3,,,Active,November-10-2018 11:00 AM,November-10-2018 01:00 PM,http://www.redfin.com/IL/Chicago/3917-N-Spaulding-Ave-60618/home/13455383,MRED,10128473,N,Y,41.9526589,-87.7101609
MLS Listing,,Single Family Residential,3835 N Western Ave,CHICAGO,IL,60618,529999,4,3.0,North Center,2783,3210,1911,3,190,,Active,,,http://www.redfin.com/IL/Chicago/3835-N-Western-Ave-60618/home/13389095,MRED,10128222,N,Y,41.9514052,-87.6881013
MLS Listing,,Condo/Co-op,100 E 14th St #2506,CHICAGO,IL,60605,525000,2,2.0,Near South Side,1386,,2008,4,379,564,Active,,,http://www.redfin.com/IL/Chicago/100-E-14th-St-60605/unit-2506/home/39558206,MRED,10127947,N,Y,41.8645524,-87.6236878
MLS Listing,,Single Family Residential,2645 W Farwell Ave,CHICAGO,IL,60645,500000,5,3.5,West Ridge,2896,6050,1945,4,173,,Active,,,http://www.redfin.com/IL/Chicago/2645-W-Farwell-Ave-60645/home/13583677,MRED,10127812,N,Y,42.0055442,-87.6967455
MLS Listing,,Condo/Co-op,2626 N Lakeview Ave #903,CHICAGO,IL,60614,549900,3,2.5,Lincoln Park,1489,,1968,4,369,1431,Active,,,http://www.redfin.com/IL/Chicago/2626-N-Lakeview-Ave-60614/unit-903/home/13367383,MRED,10127724,N,Y,41.9303286,-87.6398531
MLS Listing,,Condo/Co-op,474 N Lake Shore Dr #2002,CHICAGO,IL,60611,519000,2,2.0,Near North Side,1257,,1991,4,413,894,Active,,,http://www.redfin.com/IL/Chicago/474-N-Lake-Shore-Dr-60611/unit-2002/home/12620170,MRED,10127616,N,Y,41.8908091,-87.6145882
MLS Listing,,Single Family Residential,5144 N Tripp Ave,CHICAGO,IL,60630,549900,6,4.0,Albany Park,3733,3524,2017,4,147,,Active,,,http://www.redfin.com/IL/Chicago/5144-N-Tripp-Ave-60630/home/22712238,MRED,10127367,N,Y,41.9750054,-87.7346815
MLS Listing,,Single Family Residential,6200 N LEONA Ave,CHICAGO,IL,60646,524900,4,2.0,Forest Glen,2100,4800,1954,4,250,,Active,,,http://www.redfin.com/IL/Chicago/6200-N-Leona-Ave-60646/home/13513343,MRED,10127357,N,Y,41.993143,-87.7573626
MLS Listing,,Condo/Co-op,6007 N Sheridan Rd Unit 17DF,CHICAGO,IL,60660,525000,3,3.0,Edgewater,2900,,1969,4,181,1226,Active,,,http://www.redfin.com/IL/Chicago/6007-N-Sheridan-Rd-60660/unit-17DF/home/13094095,MRED,10127260,N,Y,41.9913121,-87.6547605
MLS Listing,,Condo/Co-op,3131 N Racine Ave Unit 1F,CHICAGO,IL,60657,509000,3,2.0,Lake View,,,1998,4,,150,Active,,,http://www.redfin.com/IL/Chicago/3131-N-Racine-Ave-60657/unit-1F/home/12772300,MRED,10127233,N,Y,41.9389205,-87.6585561
MLS Listing,,Condo/Co-op,3237 N Hoyne Ave #1,CHICAGO,IL,60618,500000,3,2.0,North Center,2000,,1890,4,250,250,Active,November-10-2018 02:00 PM,November-10-2018 04:00 PM,http://www.redfin.com/IL/Chicago/3237-N-Hoyne-Ave-60618/unit-1/home/12743389,MRED,10127222,N,Y,41.940654,-87.6804669
MLS Listing,,Condo/Co-op,2743 N Wayne Ave Unit E,CHICAGO,IL,60614,525000,3,3.0,Lincoln Park,1800,,1986,4,292,339,Active,,,http://www.redfin.com/IL/Chicago/2743-N-Wayne-Ave-60614/unit-E/home/144938901,MRED,10127124,N,Y,41.932104,-87.661945
MLS Listing,,Condo/Co-op,2731 W Cortez St #3,CHICAGO,IL,60622,525000,2,2.0,West Town,1250,3125,2018,4,420,113,Active,,,http://www.redfin.com/IL/Chicago/2731-W-Cortez-St-60622/unit-3/home/146502029,MRED,10127016,N,Y,41.9000362,-87.6956482
MLS Listing,,Condo/Co-op,1114 W Columbia Ave Unit 3E,CHICAGO,IL,60626,525000,3,2.0,Rogers Park,2800,,1920,5,188,545,Active,,,http://www.redfin.com/IL/Chicago/1114-W-Columbia-Ave-60626/unit-3E/home/104214924,MRED,10126962,N,Y,42.0046669,-87.6587041
MLS Listing,,Single Family Residential,2836 S LOCK St,CHICAGO,IL,60608,549900,4,3.5,Bridgeport,3200,2436,2006,5,172,,Active,,,http://www.redfin.com/IL/Chicago/2836-S-Lock-St-60608/home/12724497,MRED,10126146,N,Y,41.8414535,-87.6625874
MLS Listing,,Single Family Residential,2842 S LOCK St,CHICAGO,IL,60608,549900,4,3.5,Bridgeport,3200,2436,2006,5,172,,Active,,,http://www.redfin.com/IL/Chicago/2842-S-Lock-St-60608/home/12621136,MRED,10126059,N,Y,41.8413017,-87.6624919
MLS Listing,,Multi-Family (2-4 Unit),6329 W Cuyler Ave,CHICAGO,IL,60634,539000,8,3.0,Portage Park,,4356,1925,5,,,Active,,,http://www.redfin.com/IL/Chicago/6329-W-Cuyler-Ave-60634/home/13474045,MRED,10126018,N,Y,41.953644,-87.7852873
MLS Listing,,Condo/Co-op,2730 W ARMITAGE Ave Unit 3W,CHICAGO,IL,60647,550000,3,2.0,Logan Square,1700,6870,2018,6,324,295,Active,,,http://www.redfin.com/IL/Chicago/2730-W-Armitage-Ave-60647/unit-3W/home/147932668,MRED,10125605,N,Y,41.917782,-87.6960579
MLS Listing,,Condo/Co-op,110 W Superior St #1504,CHICAGO,IL,60654,545000,1,1.5,Near North Side,1150,,2009,6,474,667,Active,,,http://www.redfin.com/IL/Chicago/110-W-Superior-St-60654/unit-1504/home/45475158,MRED,10125369,N,Y,41.8959292,-87.6319881
MLS Listing,,Condo/Co-op,195 N Harbor Dr #3601,CHICAGO,IL,60601,520000,2,2.0,Loop,1300,,1991,6,400,917,Active,,,http://www.redfin.com/IL/Chicago/195-N-Harbor-Dr-60601/unit-3601/home/14094101,MRED,10125351,N,Y,41.8855212,-87.6146956
MLS Listing,,Condo/Co-op,1447 W EDGEWATER Ave #1,CHICAGO,IL,60660,525000,3,3.0,Edgewater,2363,,,6,222,399,Active,,,http://www.redfin.com/IL/Chicago/1447-W-Edgewater-Ave-60660/unit-1/home/12617343,MRED,10125250,N,Y,41.986066,-87.666874
MLS Listing,,Condo/Co-op,110 E Delaware Pl #1104,CHICAGO,IL,60611,525000,2,2.0,Near North Side,1600,,1981,6,328,1300,Active,,,http://www.redfin.com/IL/Chicago/110-E-Delaware-Pl-60611/unit-1104/home/14120000,MRED,10125213,N,Y,41.899393,-87.625666
MLS Listing,,Single Family Residential,1219 W Glenlake Ave,CHICAGO,IL,60660,550000,4,1.5,Edgewater,,4125,1910,7,,,Active,,,http://www.redfin.com/IL/Chicago/1219-W-Glenlake-Ave-60660/home/13414303,MRED,10124859,N,Y,41.9925267,-87.6612024
MLS Listing,,Condo/Co-op,57 E DELAWARE Pl #3001,CHICAGO,IL,60611,535000,1,1.5,Near North Side,1135,,2000,7,471,872,Active,,,http://www.redfin.com/IL/Chicago/57-E-Delaware-Pl-60611/unit-3001/home/12770437,MRED,10124824,N,Y,41.8988683,-87.626187
MLS Listing,,Single Family Residential,2020 N HAMLIN Ave,CHICAGO,IL,60647,515000,4,4.0,Logan Square,1994,136125000,1888,7,258,,Active,,,http://www.redfin.com/IL/Chicago/2020-N-Hamlin-Ave-60647/home/13420608,MRED,10118974,N,Y,41.9179283,-87.7219275
MLS Listing,,Single Family Residential,6248 W Melrose St,CHICAGO,IL,60634,539900,5,4.0,Dunning,2500,5039,1924,7,216,,Active,,,http://www.redfin.com/IL/Chicago/6248-W-Melrose-St-60634/home/13465757,MRED,10124586,N,Y,41.9395057,-87.7830586
MLS Listing,,Condo/Co-op,512 N Mcclurg Ct #1101,CHICAGO,IL,60611,534900,2,2.0,Near North Side,1450,,2002,7,369,570,Active,,,http://www.redfin.com/IL/Chicago/512-N-McClurg-Ct-60611/unit-1101/home/12715110,MRED,10124352,N,Y,41.8915234,-87.6178142
MLS Listing,,Condo/Co-op,1430 S Michigan Ave Ph 6,CHICAGO,IL,60605,505000,2,2.0,Near South Side,1450,,2000,7,348,558,Active,,,http://www.redfin.com/IL/Chicago/1430-S-Michigan-Ave-60605/unit-6/home/91488427,MRED,10124307,N,Y,41.8632219,-87.6242565
MLS Listing,,Condo/Co-op,653 N Kingsbury St #2003,CHICAGO,IL,60654,540000,2,2.0,Near North Side,,,2003,7,,775,Active,,,http://www.redfin.com/IL/Chicago/653-N-Kingsbury-St-60654/unit-2003/home/12673580,MRED,10124274,N,Y,41.8936637,-87.6410666
MLS Listing,,Vacant Land,4743 W GRAND Ave,CHICAGO,IL,60639,549000,,,Austin,,17340,,7,,,Active,,,http://www.redfin.com/IL/Chicago/4743-W-Grand-Ave-60639/home/147922130,MRED,10124223,N,Y,41.9131446,-87.7451341
MLS Listing,,Condo/Co-op,165 N CANAL St #1016,CHICAGO,IL,60606,500000,2,2.0,Near West Side,1700,,,7,294,733,Active,,,http://www.redfin.com/IL/Chicago/165-N-Canal-St-60606/unit-1016/home/12767307,MRED,10124180,N,Y,41.8850065,-87.6393978
MLS Listing,,Townhouse,1608 W Grace St,CHICAGO,IL,60613,529900,2,2.5,Lake View,1600,,2003,7,331,,Active,,,http://www.redfin.com/IL/Chicago/1608-W-Grace-St-60613/home/26779373,MRED,10124137,N,Y,41.950782,-87.669482
MLS Listing,,Condo/Co-op,2000 N Lincoln Park West #1301,CHICAGO,IL,60614,550000,2,2.0,Lincoln Park,,,1930,8,,1153,Active,,,http://www.redfin.com/IL/Chicago/2000-N-Lincoln-Park-W-60614/unit-1301/home/145028058,MRED,10123930,N,Y,41.9196557,-87.6366519
MLS Listing,,Condo/Co-op,1546 N Bosworth Ave Unit 1N,CHICAGO,IL,60642,550000,3,3.0,West Town,,,1998,8,,220,Active,,,http://www.redfin.com/IL/Chicago/1546-N-Bosworth-Ave-60642/unit-1N/home/70013369,MRED,10123914,N,Y,41.910223,-87.666768
MLS Listing,,Multi-Family (2-4 Unit),1753 W Superior St,CHICAGO,IL,60622,549000,8,3.0,West Town,,2613,1905,9,,,Active,,,http://www.redfin.com/IL/Chicago/1753-W-Superior-St-60622/home/14105032,MRED,10123659,N,Y,41.8949099,-87.6718129
MLS Listing,,Multi-Family (2-4 Unit),545 N Wood St,CHICAGO,IL,60622,550000,5,3.0,West Town,,1742,,9,,,Active,,,http://www.redfin.com/IL/Chicago/545-N-Wood-St-60622/home/14103940,MRED,10123645,N,Y,41.8922324,-87.671848
MLS Listing,,Multi-Family (2-4 Unit),4826 N Sawyer Ave,CHICAGO,IL,60625,549000,6,3.0,Albany Park,,3484,1913,10,,,Active,,,http://www.redfin.com/IL/Chicago/4826-N-Sawyer-Ave-60625/unit-1/home/13493098,MRED,10123302,N,Y,41.969296,-87.710039
MLS Listing,,Condo/Co-op,1523 W Montana St #3,CHICAGO,IL,60614,525000,2,2.0,Lincoln Park,,,2006,10,,142,Active,,,http://www.redfin.com/IL/Chicago/1523-W-Montana-St-60614/home/18918294,MRED,10122562,N,Y,41.9258152,-87.666767
MLS Listing,,Multi-Family (2-4 Unit),1411 N Campbell Ave,CHICAGO,IL,60622,545000,6,2.0,West Town,,3049,1892,10,,,Active,,,http://www.redfin.com/IL/Chicago/1411-N-Campbell-Ave-60622/home/13289433,MRED,10122715,N,Y,41.9070502,-87.6893431
MLS Listing,,Single Family Residential,2126 W Sunnyside Ave,CHICAGO,IL,60625,550000,4,4.0,Lincoln Square,,3001,1896,10,,,Active,,,http://www.redfin.com/IL/Chicago/2126-W-Sunnyside-Ave-60625/home/13392585,MRED,10122718,N,Y,41.9634724,-87.681747
MLS Listing,,Condo/Co-op,4913 N Ashland Ave #3,CHICAGO,IL,60640,519900,4,3.0,Uptown,2200,,2002,10,236,215,Active,,,http://www.redfin.com/IL/Chicago/4913-N-Ashland-Ave-60640/unit-3/home/12665337,MRED,10122473,N,Y,41.9723315,-87.6690749
MLS Listing,,Single Family Residential,3355 S GILES Ave,CHICAGO,IL,60616,539000,4,3.5,Douglas,3125,3125,1870,11,172,,Active,,,http://www.redfin.com/IL/Chicago/3355-S-Giles-Ave-60616/home/22985144,MRED,10120671,N,Y,41.8330892,-87.6191104
MLS Listing,,Condo/Co-op,2239 W North Ave Unit 4B,CHICAGO,IL,60647,545000,2,2.0,West Town,1571,,2004,11,347,230,Active,,,http://www.redfin.com/IL/Chicago/2239-W-North-Ave-60647/unit-4B/home/12636094,MRED,10121992,N,Y,41.9101752,-87.6839414
MLS Listing,,Single Family Residential,5322 N Ludlam Ave,CHICAGO,IL,60630,539900,3,3.5,Jefferson Park,,3720,,11,,,Active,,,http://www.redfin.com/IL/Chicago/5322-N-Ludlam-Ave-60630/home/13498445,MRED,10121981,N,Y,41.978473,-87.763501
MLS Listing,,Condo/Co-op,1339 N Mohawk St Unit 1S,CHICAGO,IL,60610,539000,3,3.0,Near North Side,2300,22570,1998,11,234,450,Active,,,http://www.redfin.com/IL/Chicago/1339-N-Mohawk-St-60610/unit-1S/home/12769796,MRED,10121943,N,Y,41.9067166,-87.6418105
MLS Listing,,Condo/Co-op,2239 W Belmont Ave #2,CHICAGO,IL,60618,549900,3,2.0,North Center,,,2018,11,,,Active,,,http://www.redfin.com/IL/Chicago/2239-W-Belmont-Ave-60618/unit-2/home/145234274,MRED,10121663,N,Y,41.9393338,-87.684751
MLS Listing,,Condo/Co-op,659 W Wellington Ave Unit 3W,CHICAGO,IL,60657,515000,3,1.5,Lake View,,,1914,11,,282,Active,,,http://www.redfin.com/IL/Chicago/659-W-Wellington-Ave-60657/unit-3W/home/141025619,MRED,10121647,N,Y,41.93619,-87.646552
MLS Listing,,Townhouse,1005 W DICKENS Ave,CHICAGO,IL,60614,524900,2,2.0,Lincoln Park,,,1984,11,,,Active,,,http://www.redfin.com/IL/Chicago/1005-W-Dickens-Ave-60614/home/147835683,MRED,10121504,N,Y,41.9197862,-87.6537407
MLS Listing,,Condo/Co-op,1230 N State Pkwy Unit 20B,CHICAGO,IL,60610,549000,2,2.0,Near North Side,1250,,1979,12,439,962,Active,,,http://www.redfin.com/IL/Chicago/1230-N-State-Pkwy-60610/unit-20B/home/14110978,MRED,10121164,N,Y,41.9046714,-87.6290111
MLS Listing,,Condo/Co-op,1647 N Artesian Ave #1,CHICAGO,IL,60647,515000,3,2.5,West Town,2200,6250,2007,12,234,120,Active,,,http://www.redfin.com/IL/Chicago/1647-N-Artesian-Ave-60647/unit-1/home/26806847,MRED,10121097,N,Y,41.9117043,-87.6881278
MLS Listing,,Condo/Co-op,195 N Harbor Dr #2804,CHICAGO,IL,60601,530000,2,2.0,Loop,1225,,1991,12,433,761,Active,,,http://www.redfin.com/IL/Chicago/195-N-Harbor-Dr-60601/unit-2804/home/14093031,MRED,10121094,N,Y,41.8855212,-87.6146956
MLS Listing,,Multi-Family (2-4 Unit),4748 S PRAIRIE Ave,CHICAGO,IL,60615,549000,13,8.0,Grand Boulevard,,3920,,12,,,Active,,,http://www.redfin.com/IL/Chicago/4748-S-Prairie-Ave-60615/unit-2/home/13951764,MRED,10121040,N,Y,41.8078442,-87.6199601
MLS Listing,,Single Family Residential,4223 S Vincennes Ave,CHICAGO,IL,60653,546000,4,3.5,Grand Boulevard,3600,7849,2018,12,152,100,Active,,,http://www.redfin.com/IL/Chicago/4223-S-Vincennes-Ave-60653/home/147820625,MRED,10121005,N,Y,41.8177769,-87.6135269
MLS Listing,,Single Family Residential,508 E 42nd Pl,CHICAGO,IL,60653,525000,4,3.5,Grand Boulevard,3200,7849,2018,12,164,100,Active,,,http://www.redfin.com/IL/Chicago/508-E-42nd-Pl-60653/home/147820500,MRED,10120995,N,Y,41.8177421,-87.6136059
MLS Listing,,Multi-Family (2-4 Unit),2032 W Birchwood Ave,CHICAGO,IL,60645,510000,9,3.0,Rogers Park,,3484,1921,12,,,Active,,,http://www.redfin.com/IL/Chicago/2032-W-Birchwood-Ave-60645/home/13573583,MRED,10120690,N,Y,42.0181422,-87.6817855
MLS Listing,,Townhouse,2319 N Hamilton Ave #6,CHICAGO,IL,60647,500000,3,2.5,Logan Square,1935,,2001,12,258,177,Active,,,http://www.redfin.com/IL/Chicago/2319-N-Hamilton-Ave-60647/unit-6/home/12698897,MRED,10120668,N,Y,41.9233343,-87.6810813
MLS Listing,,Condo/Co-op,1417 W Chicago Ave #3,CHICAGO,IL,60642,500000,3,2.0,West Town,,,2005,12,,332,Active,,,http://www.redfin.com/IL/Chicago/1417-W-Chicago-Ave-60642/unit-3/home/12593278,MRED,10120522,N,Y,41.895855,-87.6630397
MLS Listing,,Multi-Family (2-4 Unit),4343 W Drummond Pl,CHICAGO,IL,60639,549900,8,3.0,Hermosa,,3484,,12,,,Active,,,http://www.redfin.com/IL/Chicago/4343-W-Drummond-Pl-60639/unit-2/home/13443063,MRED,10120379,N,Y,41.9286687,-87.7359861
MLS Listing,,Single Family Residential,6725 N Campbell Ave,CHICAGO,IL,60645,549000,6,3.0,West Ridge,4058,4743,1923,12,135,,Active,,,http://www.redfin.com/IL/Chicago/6725-N-Campbell-Ave-60645/home/113720444,MRED,10120354,N,Y,42.0039629,-87.6921444
MLS Listing,,Single Family Residential,3834 N Milwaukee Ct,CHICAGO,IL,60641,550000,4,3.5,Portage Park,,3271,2000,13,,120,Active,,,http://www.redfin.com/IL/Chicago/3834-N-Milwaukee-Ave-60641/unit-8/home/12774921,MRED,10120004,N,Y,41.9504885,-87.7434034
MLS Listing,,Multi-Family (2-4 Unit),3517 N Western Ave,CHICAGO,IL,60618,545000,4,3.0,North Center,,3049,1906,13,,,Active,,,http://www.redfin.com/IL/Chicago/3517-N-Western-Ave-60618/unit-2ND/home/13388405,MRED,10119968,N,Y,41.945545,-87.6879184
MLS Listing,,Townhouse,424 W Elm St,CHICAGO,IL,60610,524500,3,3.0,Near North Side,1606,,2007,13,327,298,Active,,,http://www.redfin.com/IL/Chicago/424-W-Elm-St-60610/home/21788922,MRED,10119960,N,Y,41.9028261,-87.6393655
MLS Listing,,Condo/Co-op,855 N Wolcott Ave #2,CHICAGO,IL,60622,509000,2,2.0,West Town,,,2018,13,,120,Active,,,http://www.redfin.com/IL/Chicago/855-N-Wolcott-Ave-60622/unit-2/home/145926645,MRED,10119912,N,Y,41.8975459,-87.6744193
MLS Listing,,Condo/Co-op,330 N Clinton St #405,CHICAGO,IL,60661,539999,2,2.0,Near West Side,1400,,1999,13,386,562,Active,,,http://www.redfin.com/IL/Chicago/330-N-Clinton-St-60661/unit-405/home/12767223,MRED,10119824,N,Y,41.8878181,-87.6417832
MLS Listing,,Condo/Co-op,1430 N Astor St Unit 14C,CHICAGO,IL,60610,545000,3,3.0,Near North Side,1600,,1973,13,341,1895,Active,,,http://www.redfin.com/IL/Chicago/1430-N-Astor-St-60610/unit-14C/home/14127046,MRED,10119822,N,Y,41.9085826,-87.6279508
MLS Listing,,Single Family Residential,4406 N Keeler Ave,CHICAGO,IL,60630,539900,5,3.0,Irving Park,2600,3950,1891,13,208,,Active,,,http://www.redfin.com/IL/Chicago/4406-N-Keeler-Ave-60630/home/13480744,MRED,10119260,N,Y,41.9611539,-87.7330081
MLS Listing,,Single Family Residential,6626 S University Ave,CHICAGO,IL,60637,549900,6,4.5,Woodlawn,,3149,1910,14,,,Active,,,http://www.redfin.com/IL/Chicago/6626-S-University-Ave-60637/home/13928241,MRED,10118979,N,Y,41.7741487,-87.5987527
MLS Listing,,Multi-Family (2-4 Unit),2633 N California Ave,CHICAGO,IL,60647,540000,7,3.0,Logan Square,,4356,1903,14,,,Active,,,http://www.redfin.com/IL/Chicago/2633-N-California-Ave-60647/home/13449878,MRED,10118966,N,Y,41.9297091,-87.6973037
MLS Listing,,Condo/Co-op,33 W Ontario St Unit 32A,CHICAGO,IL,60654,549000,2,2.0,Near North Side,1325,,2004,14,414,927,Active,,,http://www.redfin.com/IL/Chicago/33-W-Ontario-St-60654/unit-32A/home/39564138,MRED,10118779,N,Y,41.893042,-87.629247
MLS Listing,,Townhouse,3243 N Ravenswood Ave,CHICAGO,IL,60657,500000,3,1.5,Lake View,,,1993,14,,100,Active,November-11-2018 12:00 PM,November-11-2018 02:00 PM,http://www.redfin.com/IL/Chicago/3243-N-Ravenswood-Ave-60657/home/13384254,MRED,10110426,N,Y,41.9409053,-87.673346
MLS Listing,,Multi-Family (2-4 Unit),4228 N Drake Ave,CHICAGO,IL,60618,525000,6,3.0,Irving Park,,3049,1910,15,,,Active,,,http://www.redfin.com/IL/Chicago/4228-N-Drake-Ave-60618/home/13483858,MRED,10118028,N,Y,41.9583784,-87.7169441
MLS Listing,,Multi-Family (2-4 Unit),5910 N Campbell Ave,CHICAGO,IL,60659,540000,6,2.0,West Ridge,,3720,1925,17,,,Active,,,http://www.redfin.com/IL/Chicago/5910-N-Campbell-Ave-60659/unit-2/home/13519501,MRED,10117189,N,Y,41.9890072,-87.6923802
MLS Listing,,Condo/Co-op,1008 W Cullerton St Unit 1W,CHICAGO,IL,60608,515000,3,2.0,Lower West Side,2200,5000,2016,17,234,199,Active,,,http://www.redfin.com/IL/Chicago/1008-W-Cullerton-St-60608/unit-1W/home/104020323,MRED,10116986,N,Y,41.8554272,-87.6518584
MLS Listing,,Single Family Residential,2125 W 18th St,CHICAGO,IL,60608,549900,4,3.0,Lower West Side,2800,2975,1875,17,196,,Active,,,http://www.redfin.com/IL/Chicago/2125-W-18th-St-60608/home/14087348,MRED,10116906,N,Y,41.857353,-87.679497
MLS Listing,,Single Family Residential,6513 S Woodlawn Ave,CHICAGO,IL,60637,500000,4,3.5,Woodlawn,3000,3382,1890,17,167,,Active,,,http://www.redfin.com/IL/Chicago/6513-S-Woodlawn-Ave-60637/home/13926163,MRED,10116875,N,Y,41.7764112,-87.595849
MLS Listing,,Single Family Residential,5359 N Bowmanville Ave,CHICAGO,IL,60625,549900,4,2.0,Lincoln Square,1500,3123,1898,17,367,,Active,,,http://www.redfin.com/IL/Chicago/5359-N-Bowmanville-Ave-60625/home/13405408,MRED,10116763,N,Y,41.9786136,-87.6859833
MLS Listing,,Single Family Residential,11201 S Drake Ave,CHICAGO,IL,60655,549000,4,3.5,Mount Greenwood,3260,6351,2007,17,168,,Active,,,http://www.redfin.com/IL/Chicago/11201-S-Drake-Ave-60655/home/13135826,MRED,10116736,N,Y,41.6895284,-87.7090062
MLS Listing,,Multi-Family (2-4 Unit),646 E Bowen Ave,CHICAGO,IL,60653,535000,5,4.5,Grand Boulevard,,3049,2005,17,,,Active,,,http://www.redfin.com/IL/Chicago/646-E-Bowen-Ave-60653/home/17549781,MRED,10116649,N,Y,41.819676,-87.6099403
MLS Listing,,Condo/Co-op,240 E Illinois St #3102,CHICAGO,IL,60611,525000,1,1.5,Near North Side,1025,,2008,18,512,723,Active,,,http://www.redfin.com/IL/Chicago/240-E-Illinois-St-60611/unit-3102/home/39566606,MRED,10116202,N,Y,41.891402,-87.6213118
MLS Listing,,Condo/Co-op,830 W Roscoe St #4,CHICAGO,IL,60657,507000,2,2.0,Lake View,,,2002,18,,145,Active,,,http://www.redfin.com/IL/Chicago/830-W-Roscoe-St-60657/unit-4/home/12683806,MRED,10116130,N,Y,41.9438602,-87.6506018
MLS Listing,,Townhouse,2730 N Greenview Ave Unit L,CHICAGO,IL,60614,549000,3,3.0,Lincoln Park,,,1988,18,,373,Active,,,http://www.redfin.com/IL/Chicago/2730-N-Greenview-Ave-60614/unit-L/home/13363076,MRED,10116111,N,Y,41.9314545,-87.6661292
MLS Listing,,Condo/Co-op,910 S Michigan Ave #1505,CHICAGO,IL,60605,549000,2,2.0,Loop,1725,,2011,18,318,865,Active,,,http://www.redfin.com/IL/Chicago/910-S-Michigan-Ave-60605/unit-1505/home/12627082,MRED,10116096,N,Y,41.8701638,-87.6248467
MLS Listing,,Condo/Co-op,910 S MICHIGAN Ave #1615,CHICAGO,IL,60605,540000,2,2.0,Loop,1540,,1911,18,351,769,Active,,,http://www.redfin.com/IL/Chicago/910-S-Michigan-Ave-60605/unit-1615/home/12631595,MRED,10115432,N,Y,41.8701638,-87.6248467
MLS Listing,,Condo/Co-op,2 E Erie St #1708,CHICAGO,IL,60611,525000,2,2.0,Near North Side,1276,,2002,18,411,768,Active,,,http://www.redfin.com/IL/Chicago/2-E-Erie-St-60611/unit-1708/home/12607728,MRED,10115427,N,Y,41.8943554,-87.6276756
MLS Listing,,Multi-Family (5+ Unit),8348 S Maryland Ave,CHICAGO,IL,60619,525000,15,6.0,Chatham,7863,5662,1924,18,67,,Active,,,http://www.redfin.com/IL/Chicago/8348-S-Maryland-Ave-60619/unit-6/home/13222300,MRED,10115418,N,Y,41.7426155,-87.6041264
MLS Listing,,Single Family Residential,6785 N Dowagiac Ave,CHICAGO,IL,60646,535000,3,2.0,Forest Glen,1500,6438,1956,18,357,,Active,,,http://www.redfin.com/IL/Chicago/6785-N-Dowagiac-Ave-60646/home/13590693,MRED,10115167,N,Y,42.0041163,-87.7646289
MLS Listing,,Condo/Co-op,2125 W Belmont Ave Unit 2W,CHICAGO,IL,60618,500000,3,2.0,North Center,1800,6250,2004,19,278,288,Active,,,http://www.redfin.com/IL/Chicago/2125-W-Belmont-Ave-60618/unit-2W/home/12637187,MRED,10114419,N,Y,41.9394327,-87.6817746
MLS Listing,,Single Family Residential,6252 N Drake Ave,CHICAGO,IL,60659,549000,4,3.0,North Park,3200,3720,1954,19,172,,Active,,,http://www.redfin.com/IL/Chicago/6252-N-Drake-Ave-60659/home/13517354,MRED,10114077,N,Y,41.9953118,-87.718089
MLS Listing,,Single Family Residential,223 S Hamilton Ave,CHICAGO,IL,60612,549900,4,3.5,Near West Side,2850,3070,1875,19,193,,Active,,,http://www.redfin.com/IL/Chicago/223-S-Hamilton-Ave-60612/home/14088130,MRED,10114038,N,Y,41.8779458,-87.6799465
MLS Listing,,Single Family Residential,6284 N LEONA Ave,CHICAGO,IL,60646,545000,3,2.5,Forest Glen,,4373,1942,20,,,Active,November-10-2018 12:00 AM,November-10-2018 02:00 PM,http://www.redfin.com/IL/Chicago/6284-N-Leona-Ave-60646/home/13513340,MRED,10114019,N,Y,41.9955801,-87.7553632
MLS Listing,,Condo/Co-op,3530 N Lincoln Ave #204,CHICAGO,IL,60657,539000,2,2.0,Lake View,,,2018,20,,260,Active,,,http://www.redfin.com/IL/Chicago/3530-N-Lincoln-Ave-60657/unit-204/home/146668828,MRED,10113496,N,Y,41.9458612,-87.6733311
MLS Listing,,Condo/Co-op,3740 N Lake Shore Dr Unit 11B,CHICAGO,IL,60613,550000,2,2.5,Lake View,,,1924,20,,1578,Active,,,http://www.redfin.com/IL/Chicago/3740-N-Lake-Shore-Dr-60613/unit-11B/home/13378750,MRED,10113463,N,Y,41.9515259,-87.6453997
MLS Listing,,Condo/Co-op,450 E Waterside Dr #2501,CHICAGO,IL,60601,538000,1,1.5,Loop,961,2215,2007,21,560,617,Active,,,http://www.redfin.com/IL/Chicago/450-E-Waterside-Dr-60601/unit-2501/home/26780557,MRED,10112555,N,Y,41.887094,-87.6153778
MLS Listing,,Single Family Residential,4855 N Tripp Ave,CHICAGO,IL,60630,524900,4,3.0,Albany Park,,4190,1916,21,,,Active,,,http://www.redfin.com/IL/Chicago/4855-N-Tripp-Ave-60630/home/13494050,MRED,10112498,N,Y,41.9697754,-87.733941
MLS Listing,,Multi-Family (2-4 Unit),2846 N Elston Ave,CHICAGO,IL,60618,520000,6,3.0,Avondale,,3049,1887,21,,,Active,November-17-2018 12:00 PM,November-17-2018 02:00 PM,http://www.redfin.com/IL/Chicago/2846-N-Elston-Ave-60618/home/13451992,MRED,10112363,N,Y,41.9329983,-87.6894105
MLS Listing,,Multi-Family (5+ Unit),817 E Marquette Rd,CHICAGO,IL,60637,514000,12,8.0,Woodlawn,,,1965,21,,,Active,,,http://www.redfin.com/IL/Chicago/817-E-Marquette-Rd-60637/home/147610856,MRED,10112208,N,Y,41.7748072,-87.6050338
MLS Listing,,Condo/Co-op,130 N Garland Ct #1102,CHICAGO,IL,60602,530000,2,2.0,Loop,1200,,2005,21,442,641,Active,,,http://www.redfin.com/IL/Chicago/130-N-Garland-Ct-60602/unit-1102/home/12657086,MRED,10112181,N,Y,41.8840059,-87.6257667
MLS Listing,,Condo/Co-op,360 E Randolph St #2107,CHICAGO,IL,60601,549900,2,2.0,Loop,,,1982,21,,951,Active,,,http://www.redfin.com/IL/Chicago/360-E-Randolph-St-60601/unit-2107/home/14094763,MRED,10111978,N,Y,41.8848814,-87.6179462
MLS Listing,,Condo/Co-op,900 N Kingsbury St #1030,CHICAGO,IL,60610,549000,2,2.5,Near North Side,1414,,,23,388,836,Active,,,http://www.redfin.com/IL/Chicago/900-N-Kingsbury-St-60610/unit-1030/home/12688711,MRED,10111322,N,Y,41.8987748,-87.6447692
MLS Listing,,Condo/Co-op,1200 W MONROE St #815,CHICAGO,IL,60607,515000,2,2.0,Near West Side,1270,,2004,24,406,570,Active,,,http://www.redfin.com/IL/Chicago/1200-W-Monroe-St-60607/unit-815/home/12646018,MRED,10111085,N,Y,41.8810641,-87.6574278
MLS Listing,,Single Family Residential,1521 W Birchwood Ave,CHICAGO,IL,60626,549900,3,2.5,Rogers Park,2047,5401,1901,24,269,,Active,,,http://www.redfin.com/IL/Chicago/1521-W-Birchwood-Ave-60626/home/13576344,MRED,10110833,N,Y,42.0179242,-87.6690744
MLS Listing,,Condo/Co-op,2817 N Oakley Ave Unit 3S,CHICAGO,IL,60618,509900,3,2.0,Logan Square,1500,10293,2018,24,340,200,Active,,,http://www.redfin.com/IL/Chicago/2817-N-Oakley-Ave-60618/unit-3S/home/147586616,MRED,10110790,N,Y,41.932775,-87.6850398
MLS Listing,,Single Family Residential,10509 S Seeley Ave,CHICAGO,IL,60643,549900,6,4.0,Beverly,3098,7501,1910,24,178,,Active,,,http://www.redfin.com/IL/Chicago/10509-S-Seeley-Ave-60643/home/13072415,MRED,10110756,N,Y,41.7025294,-87.6725029
MLS Listing,,Condo/Co-op,474 N Lake Shore Dr #3605,CHICAGO,IL,60611,540000,2,2.0,Near North Side,1257,,1991,24,430,916,Active,,,http://www.redfin.com/IL/Chicago/474-N-Lake-Shore-Dr-60611/unit-3605/home/12599643,MRED,10110218,N,Y,41.8907702,-87.6148195
MLS Listing,,Condo/Co-op,25 E Superior St #1004,CHICAGO,IL,60611,535000,1,1.5,Near North Side,1200,,2003,25,446,760,Active,,,http://www.redfin.com/IL/Chicago/25-E-Superior-St-60611/unit-1004/home/12695888,MRED,10109648,N,Y,41.8953476,-87.6272158
MLS Listing,,Single Family Residential,4336 S GREENWOOD Ave,CHICAGO,IL,60653,549900,5,4.5,Kenwood,3126,3175,1889,25,176,,Active,,,http://www.redfin.com/IL/Chicago/4336-S-Greenwood-Ave-60653/home/13961867,MRED,10109516,N,Y,41.8157358,-87.5996399
MLS Listing,,Condo/Co-op,226 N Clinton St #422,CHICAGO,IL,60661,550000,2,2.0,Near West Side,1425,,,25,386,691,Active,,,http://www.redfin.com/IL/Chicago/226-N-Clinton-St-60661/unit-422/home/12556950,MRED,10109464,N,Y,41.8862901,-87.6417042
MLS Listing,,Multi-Family (2-4 Unit),3935 N KIMBALL Ave,Chicago,IL,60618,500000,5,2.5,Irving Park,,5625,1941,25,,,Active,,,http://www.redfin.com/IL/Chicago/3935-N-Kimball-Ave-60618/home/18954346,MRED,10108947,N,Y,41.953133,-87.7125857
MLS Listing,,Condo/Co-op,1510 N Western Ave Unit 4N,CHICAGO,IL,60622,525000,3,2.0,West Town,,5280,2018,25,,200,Active,,,http://www.redfin.com/IL/Chicago/1510-N-Western-Ave-60622/unit-4N/home/146423312,MRED,10108943,N,Y,41.908867,-87.6876777
MLS Listing,,Condo/Co-op,648 W Sheridan Rd #1,CHICAGO,IL,60613,539900,3,2.0,Lake View,2300,,,26,235,406,Active,,,http://www.redfin.com/IL/Chicago/648-W-Sheridan-Rd-60613/unit-1/home/13379852,MRED,10085869,N,Y,41.9532557,-87.6467713
MLS Listing,,Condo/Co-op,1515 N CLAREMONT Ave #3,CHICAGO,IL,60622,535000,2,2.0,West Town,,3125,2008,26,,149,Active,,,http://www.redfin.com/IL/Chicago/1515-N-Claremont-Ave-60622/unit-3/home/21814162,MRED,10108387,N,Y,41.9090435,-87.6856151
MLS Listing,,Condo/Co-op,3839 N Ashland Ave #2,CHICAGO,IL,60613,549000,3,2.0,Lake View,2000,,2009,26,275,272,Active,,,http://www.redfin.com/IL/Chicago/3839-N-Ashland-Ave-60613/unit-2/home/13385059,MRED,10107983,N,Y,41.9518231,-87.6684965
MLS Listing,,Multi-Family (2-4 Unit),2442 N Lawndale Ave,CHICAGO,IL,60647,519900,9,4.0,Logan Square,,4356,1901,26,,,Active,,,http://www.redfin.com/IL/Chicago/2442-Lawndale-Ave-60647/home/13447055,MRED,10107967,N,Y,41.925902,-87.7197462
MLS Listing,,Condo/Co-op,233 E 13th St #2301,CHICAGO,IL,60605,549900,2,2.0,Near South Side,1290,,2005,26,426,717,Active,,,http://www.redfin.com/IL/Chicago/233-E-13th-St-60605/unit-2301/home/12628762,MRED,10107856,N,Y,41.8643017,-87.6203815
MLS Listing,,Condo/Co-op,250 E PEARSON St #1304,CHICAGO,IL,60611,549500,1,1.5,Near North Side,1144,,2003,26,480,694,Active,,,http://www.redfin.com/IL/Chicago/250-E-Pearson-St-60611/unit-1304/home/12681099,MRED,10107737,N,Y,41.8979202,-87.6189597
MLS Listing,,Condo/Co-op,1201 S Prairie Ave #1306,CHICAGO,IL,60605,539900,2,2.0,Near South Side,1207,,2008,27,447,486,Active,,,http://www.redfin.com/IL/Chicago/1201-S-Prairie-Ave-60605/unit-1306/home/21727687,MRED,10107280,N,Y,41.8670233,-87.6219877
MLS Listing,,Multi-Family (2-4 Unit),4923 N Mozart St,CHICAGO,IL,60625,549000,7,3.0,Lincoln Square,,3750,1924,27,,,Active,,,http://www.redfin.com/IL/Chicago/4923-N-Mozart-St-60625/home/13490793,MRED,10107263,N,Y,41.9713808,-87.6997292
MLS Listing,,Condo/Co-op,4152 N Lincoln Ave Unit 3E,CHICAGO,IL,60618,515000,3,2.5,North Center,,,2002,27,,199,Active,,,http://www.redfin.com/IL/Chicago/4152-N-Lincoln-Ave-60618/unit-3E/home/12706869,MRED,10107200,N,Y,41.957217,-87.68129
MLS Listing,,Condo/Co-op,831 N Hermitage Ave #3,CHICAGO,IL,60622,535000,3,2.0,West Town,,,2008,27,,111,Active,,,http://www.redfin.com/IL/Chicago/831-N-Hermitage-Ave-60622/unit-3/home/12715211,MRED,10107109,N,Y,41.8969345,-87.6706502
MLS Listing,,Condo/Co-op,1220 W Ohio St #2,CHICAGO,IL,60642,525000,2,2.0,West Town,,,2018,27,,199,Active,,,http://www.redfin.com/IL/Chicago/1220-W-Ohio-St-60642/unit-2/home/147496597,MRED,10107047,N,Y,41.8927328,-87.6582864
MLS Listing,,Condo/Co-op,1470 W Balmoral Ave #2,Chicago,IL,60640,520000,2,2.0,Edgewater,,,2018,27,,132,Active,,,http://www.redfin.com/IL/Chicago/1470-W-Balmoral-Ave-60640/unit-2/home/147496594,MRED,10107052,N,Y,41.980061,-87.6675719
MLS Listing,,Condo/Co-op,1008 N LARRABEE St Unit 2N,CHICAGO,IL,60610,549900,2,2.0,Near North Side,1600,,2016,27,344,165,Active,,,http://www.redfin.com/IL/Chicago/1008-N-Larrabee-St-60610/unit-2N/home/103649717,MRED,10106937,N,Y,41.9007841,-87.6433507
MLS Listing,,Single Family Residential,5725 S Nashville Ave,CHICAGO,IL,60638,514000,3,2.5,Garfield Ridge,3350,5492,,27,153,,Active,,,http://www.redfin.com/IL/Chicago/5725-S-Nashville-Ave-60638/home/13999087,MRED,10106891,N,Y,41.7877892,-87.7862287
MLS Listing,,Condo/Co-op,1629 S Prairie Ave #2202,CHICAGO,IL,60616,524900,2,2.0,Near South Side,1342,,2009,27,391,633,Active,,,http://www.redfin.com/IL/Chicago/1629-S-Prairie-Ave-60616/unit-2202/home/39573343,MRED,10106594,N,Y,41.8594665,-87.6203861
MLS Listing,,Condo/Co-op,330 S MICHIGAN Ave #2006,CHICAGO,IL,60604,500000,2,2.5,Loop,1626,,1911,28,308,1420,Active,,,http://www.redfin.com/IL/Chicago/330-S-Michigan-Ave-60604/unit-2006/home/12751444,MRED,10106299,N,Y,41.877479,-87.6245598
MLS Listing,,Single Family Residential,3617 S Giles Ave,CHICAGO,IL,60653,519000,3,3.5,Douglas,3282,2726,1885,28,158,,Active,,,http://www.redfin.com/IL/Chicago/3617-S-Giles-Ave-60653/home/14072157,MRED,10105719,N,Y,41.8287016,-87.6189754
MLS Listing,,Single Family Residential,7230 W MYRTLE Ave,CHICAGO,IL,60631,529000,3,3.0,Norwood Park,2463,3349,2004,28,215,,Active,,,http://www.redfin.com/IL/Chicago/7230-W-Myrtle-Ave-60631/home/13565141,MRED,10105607,N,Y,41.9937805,-87.8080582
MLS Listing,,Condo/Co-op,2800 N Lake Shore Dr #1702,CHICAGO,IL,60657,549900,2,2.0,Lake View,1350,,1969,30,407,988,Active,,,http://www.redfin.com/IL/Chicago/2800-N-Lake-Shore-Dr-60657/unit-1702/home/13370348,MRED,10105209,N,Y,41.9332206,-87.6370699
MLS Listing,,Vacant Land,4822 N Natoma Ave,CHICAGO,IL,60656,500000,4,3.0,Norwood Park,,11062,,31,,,Active,,,http://www.redfin.com/IL/Chicago/4822-N-Natoma-Ave-60656/home/13504862,MRED,10104701,N,Y,41.9690671,-87.7931446
MLS Listing,,Single Family Residential,6804 N Dowagiac Ave,CHICAGO,IL,60646,535000,4,2.5,Forest Glen,1325,5131,1967,32,404,,Active,,,http://www.redfin.com/IL/Chicago/6804-N-Dowagiac-Ave-60646/home/13591034,MRED,10103582,N,Y,42.0040575,-87.76559
MLS Listing,,Multi-Family (2-4 Unit),3817 N Hamlin Ave,CHICAGO,IL,60618,520000,5,2.0,Irving Park,,3920,1909,32,,,Active,,,http://www.redfin.com/IL/Chicago/3817-N-Hamlin-Ave-60618/home/13456758,MRED,10103388,N,Y,41.9506757,-87.7222727
MLS Listing,,Condo/Co-op,5236 N KENMORE Ave Unit 2S,CHICAGO,IL,60640,524000,3,2.0,Edgewater,1600,7500,2018,32,328,156,Active,,,http://www.redfin.com/IL/Chicago/5236-N-Kenmore-Ave-60640/unit-2S/home/113108171,MRED,10103345,N,Y,41.977485,-87.656837
MLS Listing,,Townhouse,946 N Wood St #3,CHICAGO,IL,60622,549900,3,2.0,West Town,,,2003,32,,414,Active,,,http://www.redfin.com/IL/Chicago/946-N-Wood-St-60622/unit-3/home/12649798,MRED,10103051,N,Y,41.8991843,-87.6725829
MLS Listing,,Single Family Residential,6005 N Marmora Ave,CHICAGO,IL,60646,539777,4,3.0,Jefferson Park,,3876,,32,,,Active,,,http://www.redfin.com/IL/Chicago/6005-N-Marmora-Ave-60646/home/13512102,MRED,10102966,N,Y,41.9904028,-87.7751707
MLS Listing,,Condo/Co-op,2728 N LINCOLN Ave Unit 2E,CHICAGO,IL,60614,520000,3,2.0,Lincoln Park,,,2000,32,,306,Active,,,http://www.redfin.com/IL/Chicago/2728-N-Lincoln-Ave-60614/unit-2E/home/145987500,MRED,10102753,N,Y,41.9312021,-87.6571887
MLS Listing,,Condo/Co-op,2041 W Pierce Ave Unit 1B,CHICAGO,IL,60622,509000,2,2.5,West Town,1600,,2001,32,318,200,Active,,,http://www.redfin.com/IL/Chicago/2041-W-Pierce-Ave-60622/unit-1B/home/12707733,MRED,10102552,N,Y,41.9090969,-87.6788777
MLS Listing,,Single Family Residential,1212 Edmer Ave,Oak Park,IL,60302,549000,6,3.0,Oak Park,2017,5357,1927,33,272,,Active,,,http://www.redfin.com/IL/Oak-Park/1212-Edmer-Ave-60302/home/13277301,MRED,10101923,N,Y,41.9079175,-87.7842882
MLS Listing,,Condo/Co-op,2041 W Pierce Ave Unit 2B,CHICAGO,IL,60622,510000,3,2.0,West Town,,,2001,33,,200,Active,,,http://www.redfin.com/IL/Chicago/2041-W-Pierce-Ave-60622/unit-2B/home/148023585,MRED,10101620,N,Y,41.9090969,-87.6788777
MLS Listing,,Multi-Family (2-4 Unit),5819 N Campbell Ave,CHICAGO,IL,60659,500000,4,3.0,West Ridge,,3720,1921,33,,,Active,,,http://www.redfin.com/IL/Chicago/5819-N-Campbell-Ave-60659/home/13518001,MRED,10101338,N,Y,41.9874352,-87.6917209
MLS Listing,,Multi-Family (2-4 Unit),2019 N SAWYER Ave,CHICAGO,IL,60647,509000,8,3.0,Logan Square,,3049,1890,33,,,Active,,,http://www.redfin.com/IL/Chicago/2019-N-Sawyer-Ave-60647/unit-1/home/13419970,MRED,10101144,N,Y,41.9180367,-87.7085859
MLS Listing,,Single Family Residential,2123 W Adams St,CHICAGO,IL,60612,509000,4,3.5,Near West Side,1675,2352,1879,34,304,,Active,,,http://www.redfin.com/IL/Chicago/2123-W-Adams-St-60612/home/14089248,MRED,10100905,N,Y,41.8784803,-87.6800139
MLS Listing,,Condo/Co-op,1030 N STATE St Unit 16B,CHICAGO,IL,60610,550000,2,2.0,Near North Side,1150,,1971,34,478,756,Active,,,http://www.redfin.com/IL/Chicago/1030-N-State-St-60610/unit-16B/home/14110619,MRED,10100579,N,Y,41.9012852,-87.6289091
MLS Listing,,Condo/Co-op,2441 W BELMONT Ave Unit 1E,CHICAGO,IL,60618,545000,4,3.0,North Center,2400,,2012,34,227,350,Active,,,http://www.redfin.com/IL/Chicago/2441-W-Belmont-Ave-60618/unit-1E/home/40325385,MRED,10100268,N,Y,41.9392219,-87.6896702
MLS Listing,,Condo/Co-op,2147 W Roscoe St Unit 2W,CHICAGO,IL,60618,525000,3,2.0,North Center,,,2000,34,,258,Active,,,http://www.redfin.com/IL/Chicago/2147-W-Roscoe-St-60618/unit-2W/home/12717537,MRED,10100108,N,Y,41.9428738,-87.6826521
MLS Listing,,Condo/Co-op,1487 N Clybourn Ave Unit D,CHICAGO,IL,60610,540000,3,2.5,Near North Side,1600,,1997,34,338,385,Active,,,http://www.redfin.com/IL/Chicago/1487-N-Clybourn-Ave-60610/unit-D/home/12740940,MRED,10100042,N,Y,41.9086584,-87.6452735
MLS Listing,,Condo/Co-op,303 W Ohio St #1607,CHICAGO,IL,60654,549999,2,2.0,Near North Side,,,2008,34,,640,Active,,,http://www.redfin.com/IL/Chicago/303-W-Ohio-St-60654/unit-1607/home/40368930,MRED,10099954,N,Y,41.8921242,-87.6360649
MLS Listing,,Townhouse,920 N ELIZABETH St,CHICAGO,IL,60642,539000,2,3.0,West Town,2092,,2000,35,258,,Active,,,http://www.redfin.com/IL/Chicago/920-N-Elizabeth-St-60642/home/12767955,MRED,09980793,N,Y,41.8986935,-87.6605867
MLS Listing,,Condo/Co-op,225 N Columbus Dr #5311,CHICAGO,IL,60601,515000,1,1.0,Loop,740,87120,2009,35,696,473,Active,,,http://www.redfin.com/IL/Chicago/225-N-Columbus-Dr-60601/unit-5311/home/52637946,MRED,10099748,N,Y,41.8864588,-87.6197781
MLS Listing,,Townhouse,1800 W BYRON St,CHICAGO,IL,60613,549900,3,3.0,North Center,,1167,1995,35,,,Active,,,http://www.redfin.com/IL/Chicago/1800-W-Byron-St-60613/unit-A/home/13388288,MRED,10099712,N,Y,41.952562,-87.674252
MLS Listing,,Condo/Co-op,1310 N Ritchie Ct Unit 8D,CHICAGO,IL,60610,510000,2,2.0,Near North Side,1550,,1963,35,329,1262,Active,,,http://www.redfin.com/IL/Chicago/1310-N-Ritchie-Ct-60610/unit-8D/home/14124943,MRED,10099654,N,Y,41.9064869,-87.6268519
MLS Listing,,Multi-Family (2-4 Unit),5056 W Hutchinson St,CHICAGO,IL,60641,535000,4,3.0,Portage Park,,3750,,35,,,Active,,,http://www.redfin.com/IL/Chicago/5056-W-Hutchinson-St-60641/home/13477194,MRED,10099634,N,Y,41.958097,-87.754325
MLS Listing,,Condo/Co-op,3046 N CALIFORNIA Ave #101,CHICAGO,IL,60618,549900,4,3.0,Avondale,,,2018,35,,250,Active,,,http://www.redfin.com/IL/Chicago/3046-N-California-Ave-60618/unit-101/home/145280278,MRED,10099543,N,Y,41.937112,-87.6980448
MLS Listing,,Condo/Co-op,226 N Clinton St #716,CHICAGO,IL,60661,519900,2,2.0,Near West Side,1200,,,35,433,660,Active,,,http://www.redfin.com/IL/Chicago/226-N-Clinton-St-60661/unit-716/home/12787142,MRED,10099522,N,Y,41.8862459,-87.6417751
MLS Listing,,Condo/Co-op,1720 N Orchard St Unit H,CHICAGO,IL,60614,535000,2,2.5,Lincoln Park,,,1980,35,,240,Active,November-10-2018 11:00 AM,November-10-2018 01:00 PM,http://www.redfin.com/IL/Chicago/1720-N-Orchard-St-60614/unit-H/home/147365091,MRED,10099279,N,Y,41.913355,-87.646286
MLS Listing,,Condo/Co-op,2001 S CALUMET Ave #603,CHICAGO,IL,60616,550000,3,2.5,Near South Side,2300,,1976,35,239,693,Active,,,http://www.redfin.com/IL/Chicago/2001-S-Calumet-Ave-60616/unit-603/home/22980753,MRED,10099130,N,Y,41.8555128,-87.6187066
MLS Listing,,Condo/Co-op,1642 W Julian St #2,CHICAGO,IL,60622,525000,3,2.5,West Town,,,2000,35,,175,Active,,,http://www.redfin.com/IL/Chicago/1642-W-Julian-St-60622/unit-2/home/12739443,MRED,10099035,N,Y,41.9085507,-87.669275
MLS Listing,,Condo/Co-op,437 W Division St #901,CHICAGO,IL,60610,550000,2,2.0,Near North Side,1566,,2008,35,351,743,Active,,,http://www.redfin.com/IL/Chicago/437-W-Division-St-60610/unit-901/home/147904128,MRED,10098993,N,Y,41.9034776,-87.6396523
MLS Listing,,Condo/Co-op,520 N HALSTED St #215,CHICAGO,IL,60642,535000,3,2.0,West Town,1818,,2005,36,294,472,Active,,,http://www.redfin.com/IL/Chicago/520-N-Halsted-St-60642/unit-215/home/12569744,MRED,10098405,N,Y,41.8918847,-87.64806
MLS Listing,,Condo/Co-op,1872 N Clybourn Ave #113,CHICAGO,IL,60614,549000,2,2.0,Lincoln Park,1800,,1918,37,305,635,Active,,,http://www.redfin.com/IL/Chicago/1872-N-Clybourn-Ave-60614/unit-113/home/13350703,MRED,10098069,N,Y,41.9150421,-87.6559779
MLS Listing,,Single Family Residential,4824 N Natoma Ave,CHICAGO,IL,60656,500000,3,3.0,Norwood Park,,11062,1911,37,,,Active,,,http://www.redfin.com/IL/Chicago/4824-N-Natoma-Ave-60656/home/13503086,MRED,10097911,N,Y,41.9691437,-87.7931062
MLS Listing,,Condo/Co-op,744 N Clark St #401,CHICAGO,IL,60654,519000,3,2.0,Near North Side,1428,,2003,38,363,584,Active,,,http://www.redfin.com/IL/Chicago/744-N-Clark-St-60654/unit-401/home/12669827,MRED,10097563,N,Y,41.8961978,-87.6315559
MLS Listing,,Single Family Residential,2432 N Neva Ave,CHICAGO,IL,60707,544900,4,3.5,Montclare,2125,3750,1921,38,256,,Active,,,http://www.redfin.com/IL/Chicago/2432-N-Neva-Ave-60707/unit-39/home/13432457,MRED,10097207,N,Y,41.9247954,-87.8047455
MLS Listing,,Condo/Co-op,195 N Harbor Dr #4406,CHICAGO,IL,60601,549500,2,2.0,Loop,1300,,1991,38,423,960,Active,,,http://www.redfin.com/IL/Chicago/195-N-Harbor-Dr-60601/unit-4406/home/22817006,MRED,10097029,N,Y,41.8855212,-87.6146956
MLS Listing,,Condo/Co-op,1951 W Cortland St #1,CHICAGO,IL,60622,539000,3,2.0,Logan Square,1900,,2003,38,284,200,Active,,,http://www.redfin.com/IL/Chicago/1951-W-Cortland-St-60622/unit-1/home/12683477,MRED,10096883,N,Y,41.9156843,-87.6771357
MLS Listing,,Condo/Co-op,934 N California Ave Unit 3-N,CHICAGO,IL,60622,519000,3,2.0,West Town,,,2018,39,,180,Active,,,http://www.redfin.com/IL/Chicago/934-N-California-Ave-60622/unit-3N/home/146427778,MRED,10096535,N,Y,41.8984809,-87.69714
MLS Listing,,Townhouse,1367 N Mohawk St Unit 3N,CHICAGO,IL,60610,525000,2,2.0,Near North Side,1300,6250,2000,39,404,228,Active,,,http://www.redfin.com/IL/Chicago/1367-N-Mohawk-St-60610/unit-3N/home/21814637,MRED,10096293,N,Y,41.9074412,-87.6418567
MLS Listing,,Condo/Co-op,1801 W Diversey Pkwy #27,CHICAGO,IL,60614,515000,3,2.0,Lincoln Park,2100,,1996,39,245,356,Active,,,http://www.redfin.com/IL/Chicago/1801-W-Diversey-Pkwy-60614/unit-27/home/22984433,MRED,10096256,N,Y,41.931967,-87.6740088
MLS Listing,,Condo/Co-op,4610 S DREXEL Blvd Unit 1E,CHICAGO,IL,60653,529000,4,4.0,Kenwood,2900,,,39,182,535,Active,,,http://www.redfin.com/IL/Chicago/4610-S-Drexel-Blvd-60653/unit-1E/home/13962278,MRED,10096213,N,Y,41.8109344,-87.6048676
MLS Listing,,Condo/Co-op,1335 S PRAIRIE Ave #803,CHICAGO,IL,60605,550000,2,2.0,Near South Side,1400,,2003,39,393,721,Active,,,http://www.redfin.com/IL/Chicago/1335-S-Prairie-Ave-60605/unit-803/home/12678547,MRED,10096019,N,Y,41.8657281,-87.6214321
MLS Listing,,Condo/Co-op,4860 N CLARK St Unit 3N,CHICAGO,IL,60640,515000,3,2.0,Uptown,1700,,2008,39,303,244,Active,,,http://www.redfin.com/IL/Chicago/4860-N-Clark-St-60640/unit-3N/home/17489956,MRED,10095828,N,Y,41.970702,-87.6680186
MLS Listing,,Condo/Co-op,819 N PAULINA St Unit 2E,CHICAGO,IL,60622,525000,2,2.0,West Town,1500,17700,2018,40,350,200,Active,,,http://www.redfin.com/IL/Chicago/819-N-Paulina-St-60622/unit-2E/home/147903192,MRED,10093152,N,Y,41.8966547,-87.6697273
MLS Listing,,Multi-Family (5+ Unit),1614 W 66th St,CHICAGO,IL,60636,524900,16,8.0,West Englewood,,5227,1909,40,,,Active,,,http://www.redfin.com/IL/Chicago/1614-W-66th-St-60636/home/13935767,MRED,10095426,N,Y,41.7741369,-87.6649926
MLS Listing,,Single Family Residential,5935 N Merrimac Ave,CHICAGO,IL,60646,544900,5,4.0,Norwood Park,2574,3720,1946,40,212,,Active,,,http://www.redfin.com/IL/Chicago/5935-N-Merrimac-Ave-60646/home/13511740,MRED,10095391,N,Y,41.9894733,-87.7836542
MLS Listing,,Condo/Co-op,1802 S State St #410,CHICAGO,IL,60616,525000,3,2.0,Near South Side,,,2018,40,,160,Active,,,http://www.redfin.com/IL/Chicago/1802-S-State-St-60616/unit-410/home/147286830,MRED,10095292,N,Y,41.857599,-87.627658
MLS Listing,,Condo/Co-op,2711 N Wilton Ave #2,Chicago,IL,60614,514999,2,2.0,Lincoln Park,1400,,2002,40,368,188,Active,,,http://www.redfin.com/IL/Chicago/2711-N-Wilton-Ave-60614/unit-2/home/12716305,MRED,10095126,N,Y,41.9312793,-87.6522265
MLS Listing,,Condo/Co-op,100 E 14th St #1502,CHICAGO,IL,60605,540000,2,2.0,Near South Side,1358,,2008,40,398,580,Active,,,http://www.redfin.com/IL/Chicago/100-E-14th-St-60605/unit-1502/home/39570448,MRED,10095121,N,Y,41.8645524,-87.6236878
MLS Listing,,Condo/Co-op,502 W Armitage Ave #1,CHICAGO,IL,60614,525000,3,2.0,Lincoln Park,,,1892,40,,367,Active,,,http://www.redfin.com/IL/Chicago/502-W-Armitage-Ave-60614/unit-1/home/13348569,MRED,10095034,N,Y,41.9184951,-87.6415722
MLS Listing,,Condo/Co-op,600 N Lake Shore Dr #1907,CHICAGO,IL,60611,525000,1,1.5,Near North Side,1116,,2008,40,470,617,Active,,,http://www.redfin.com/IL/Chicago/600-N-Lake-Shore-Dr-60611/unit-1907/home/21798835,MRED,10094980,N,Y,41.8930694,-87.6151037
MLS Listing,,Townhouse,434 W BRIAR Pl #2,CHICAGO,IL,60657,549900,3,2.5,Lake View,1800,,1986,40,306,317,Active,,,http://www.redfin.com/IL/Chicago/434-W-Briar-Pl-60657/unit-2/home/13372760,MRED,10094864,N,Y,41.9389857,-87.6409975
MLS Listing,,Condo/Co-op,3844 N ASHLAND Ave #24,CHICAGO,IL,60613,549000,2,2.0,Lake View,1500,,2008,40,366,403,Active,,,http://www.redfin.com/IL/Chicago/3844-N-Ashland-Ave-60613/unit-24/home/39549980,MRED,10094824,N,Y,41.9520702,-87.6693644
MLS Listing,,Multi-Family (2-4 Unit),5244 W Cullom Ave,CHICAGO,IL,60641,525000,5,3.0,Portage Park,,3920,1916,40,,,Active,,,http://www.redfin.com/IL/Chicago/5244-W-Cullom-Ave-60641/home/13480198,MRED,10094745,N,Y,41.9589649,-87.7591312
MLS Listing,,Multi-Family (2-4 Unit),1504 N Kedvale Ave,CHICAGO,IL,60651,549999,8,4.0,Humboldt Park,,2613,1910,40,,,Active,,,http://www.redfin.com/IL/Chicago/1504-N-Kedvale-Ave-60651/unit-2/home/13284004,MRED,10094571,N,Y,41.9083583,-87.7303743
MLS Listing,,Condo/Co-op,1429 N PAULINA St Unit C,CHICAGO,IL,60622,530000,3,2.5,West Town,,,1998,40,,180,Active,,,http://www.redfin.com/IL/Chicago/1429-N-Paulina-St-60622/unit-C/home/146077577,MRED,10094427,N,Y,41.9078094,-87.6698064
MLS Listing,,Multi-Family (2-4 Unit),1834 W Birchwood Ave,CHICAGO,IL,60626,549900,6,3.5,Rogers Park,,,1900,41,,,Active,,,http://www.redfin.com/IL/Chicago/1834-W-Birchwood-Ave-60626/home/147904035,MRED,10094006,N,Y,42.0180838,-87.6769711
MLS Listing,,Single Family Residential,1808 S Prospect Ave,PARK RIDGE,IL,60068,525000,4,2.5,Park Ridge,2076,6250,1925,41,253,,Active,,,http://www.redfin.com/IL/Park-Ridge/1808-S-Prospect-Ave-60068/home/13562711,MRED,10093990,N,Y,41.9878418,-87.8331399
MLS Listing,,Condo/Co-op,2127 W WALTON St #3,CHICAGO,IL,60622,515000,2,2.0,West Town,1200,,2005,41,429,161,Active,,,http://www.redfin.com/IL/Chicago/2127-W-Walton-St-60622/unit-3/home/12616828,MRED,10093981,N,Y,41.8983197,-87.6806984
MLS Listing,,Condo/Co-op,1811 N California Ave Unit 1-W,CHICAGO,IL,60647,529000,3,2.5,Logan Square,,,2018,41,,142,Active,,,http://www.redfin.com/IL/Chicago/1811-N-California-Ave-60647/unit-1W/home/144802050,MRED,10093807,N,Y,41.9142502,-87.6968471
MLS Listing,,Condo/Co-op,2730 W ARMITAGE Ave Unit 2W,CHICAGO,IL,60647,535000,3,2.0,Logan Square,1700,6870,2018,41,315,285,Active,,,http://www.redfin.com/IL/Chicago/2730-W-Armitage-Ave-60647/unit-2W/home/147267045,MRED,10093788,N,Y,41.917782,-87.6960579
MLS Listing,,Condo/Co-op,1621 N Humboldt Blvd Unit 3-N,CHICAGO,IL,60647,539000,3,2.0,West Town,,,2018,41,,169,Active,,,http://www.redfin.com/IL/Chicago/1621-N-Humboldt-Blvd-60647/unit-3N/home/144802041,MRED,10093785,N,Y,41.910926,-87.701137
MLS Listing,,Condo/Co-op,1811 N California Ave Unit 1E,CHICAGO,IL,60647,519000,3,2.5,Logan Square,,,2018,41,,140,Active,,,http://www.redfin.com/IL/Chicago/1811-N-California-Ave-60647/unit-1E/home/144802049,MRED,10093506,N,Y,41.9142502,-87.6968471
MLS Listing,,Condo/Co-op,4956 N Western Ave Unit 2S,CHICAGO,IL,60625,520000,3,2.0,Lincoln Square,1600,,2018,42,325,202,Active,,,http://www.redfin.com/IL/Chicago/4956-N-Western-Ave-60625/unit-2S/home/145104206,MRED,10092786,N,Y,41.9721008,-87.689295
MLS Listing,,Single Family Residential,6450 N Navajo Ave,CHICAGO,IL,60646,549999,3,2.0,Forest Glen,2179,9471,1949,42,252,,Active,,,http://www.redfin.com/IL/Chicago/6450-N-Navajo-Ave-60646/home/13590266,MRED,10092630,N,Y,41.9989768,-87.7569785
MLS Listing,,Condo/Co-op,915 N HOYNE Ave #4,CHICAGO,IL,60622,524900,2,2.0,West Town,,8944,1905,42,,173,Active,,,http://www.redfin.com/IL/Chicago/915-N-Hoyne-Ave-60622/unit-4/home/147244038,MRED,10092455,N,Y,41.898348,-87.6792775
MLS Listing,,Condo/Co-op,250 E Pearson St #1604,CHICAGO,IL,60611,550000,1,1.5,Near North Side,1144,,2003,42,481,701,Active,,,http://www.redfin.com/IL/Chicago/250-E-Pearson-St-60611/unit-1604/home/12673394,MRED,10092445,N,Y,41.8979202,-87.6189597
MLS Listing,,Townhouse,3634 W George St Unit E,CHICAGO,IL,60618,509000,3,2.5,Avondale,2200,1571,2014,42,231,148,Active,,,http://www.redfin.com/IL/Chicago/3634-W-George-St-60618/unit-E/home/59448573,MRED,10092299,N,Y,41.9340052,-87.7185508
MLS Listing,,Condo/Co-op,1511 S Indiana Ave Unit G,CHICAGO,IL,60605,549000,2,2.0,Near South Side,1800,,1994,42,305,378,Active,,,http://www.redfin.com/IL/Chicago/1511-S-Indiana-Ave-60605/unit-G/home/14083403,MRED,10092240,N,Y,41.861754,-87.621585
MLS Listing,,Multi-Family (2-4 Unit),5203 N Winthrop Ave,CHICAGO,IL,60640,510000,4,2.0,Edgewater,,2613,,42,,,Active,,,http://www.redfin.com/IL/Chicago/5203-N-Winthrop-Ave-60640/unit-2/home/13399946,MRED,10092075,N,Y,41.9765675,-87.6575157
MLS Listing,,Multi-Family (2-4 Unit),5481 N MILWAUKEE Ave,CHICAGO,IL,60630,515000,2,3.0,Jefferson Park,,2575,2006,45,,,Active,,,http://www.redfin.com/IL/Chicago/5481-N-Milwaukee-Ave-60630/home/39575567,MRED,10090913,N,Y,41.9814842,-87.7727012
MLS Listing,,Townhouse,1351 N LEAVITT St #3,CHICAGO,IL,60622,550000,3,2.0,West Town,2250,,1998,45,244,140,Active,,,http://www.redfin.com/IL/Chicago/1351-N-Leavitt-St-60622/unit-3/home/12768442,MRED,10090898,N,Y,41.9064662,-87.6819781
MLS Listing,,Single Family Residential,4544 S Evans Ave,CHICAGO,IL,60653,549000,5,3.5,Grand Boulevard,3200,4475,2018,45,172,,Active,,,http://www.redfin.com/IL/Chicago/4544-S-Evans-Ave-60653/home/95961500,MRED,10090837,N,Y,41.811817,-87.608704
MLS Listing,,Single Family Residential,5142 N TRIPP Ave,CHICAGO,IL,60630,524900,6,3.5,Albany Park,3400,3750,1920,45,154,,Active,,,http://www.redfin.com/IL/Chicago/5142-N-Tripp-Ave-60630/home/13496502,MRED,10090720,N,Y,41.9749079,-87.7346431
MLS Listing,,Condo/Co-op,1654 W Diversey Pkwy #1,CHICAGO,IL,60614,549000,3,2.5,Lake View,2400,,2000,45,229,136,Active,,,http://www.redfin.com/IL/Chicago/1654-W-Diversey-Pkwy-60614/unit-1/home/147761192,MRED,10090517,N,Y,41.932649,-87.670571
MLS Listing,,Condo/Co-op,130 N Garland Ct #2012,CHICAGO,IL,60602,525000,2,2.0,Loop,1100,,2005,45,477,510,Active,,,http://www.redfin.com/IL/Chicago/130-N-Garland-Ct-60602/unit-2012/home/12647860,MRED,10090372,N,Y,41.8840059,-87.6257667
MLS Listing,,Single Family Residential,713 W 16th St,CHICAGO,IL,60616,525000,4,4.0,Lower West Side,2500,2117,1881,45,210,,Active,,,http://www.redfin.com/IL/Chicago/713-W-16th-St-60616/home/14084156,MRED,10090169,N,Y,41.859747,-87.6454145
MLS Listing,,Condo/Co-op,744 N May St Unit 3P,CHICAGO,IL,60642,549000,3,2.0,West Town,,,2004,46,,453,Active,,,http://www.redfin.com/IL/Chicago/744-N-May-St-60642/unit-3P/home/12602062,MRED,10089853,N,Y,41.8957251,-87.6561707
MLS Listing,,Single Family Residential,3145 N Karlov Ave,CHICAGO,IL,60641,534990,3,2.5,Avondale,2304,1880,2019,46,232,214,Active,,,http://www.redfin.com/IL/Chicago/3145-N-Karlov-Ave-60641/home/147135663,MRED,10089852,N,Y,41.9380974,-87.7292508
MLS Listing,,Condo/Co-op,1167 W MADISON St Unit 2E,CHICAGO,IL,60607,549900,2,2.0,Near West Side,1577,,2008,46,349,134,Active,,,http://www.redfin.com/IL/Chicago/1167-W-Madison-St-60607/unit-2E/home/26818073,MRED,10089549,N,Y,41.8814617,-87.6570214
MLS Listing,,Single Family Residential,2639 W JARLATH St,CHICAGO,IL,60645,529000,5,3.5,West Ridge,2200,5209,1951,46,240,,Active,,,http://www.redfin.com/IL/Chicago/2639-W-Jarlath-St-60645/home/13602902,MRED,10089421,N,Y,42.0128314,-87.6965722
MLS Listing,,Condo/Co-op,510 W Erie St #1701,CHICAGO,IL,60654,516500,2,2.0,Near North Side,,,2002,46,,940,Active,,,http://www.redfin.com/IL/Chicago/510-W-Erie-St-60654/unit-1701/home/12707167,MRED,10089198,N,Y,41.8942821,-87.6422161
MLS Listing,,Single Family Residential,6843 Latrobe Ave,SKOKIE,IL,60077,526843,4,3.0,Skokie,3324,4660,1973,46,158,,Active,,,http://www.redfin.com/IL/Skokie/6843-Latrobe-Ave-60077/home/13592732,MRED,10089015,N,Y,42.0059717,-87.758593
MLS Listing,,Single Family Residential,1810 N Fairfield Ave,CHICAGO,IL,60647,549900,6,3.0,Logan Square,1655,3149,1892,46,332,,Active,,,http://www.redfin.com/IL/Chicago/1810-N-Fairfield-Ave-60647/home/13415550,MRED,10088921,N,Y,41.9142676,-87.6961487
MLS Listing,,Single Family Residential,6308 N Knox Ave,CHICAGO,IL,60646,534900,3,2.5,Forest Glen,2149,8250,1953,46,249,,Active,,,http://www.redfin.com/IL/Chicago/6308-N-Knox-Ave-60646/home/13514104,MRED,10088615,N,Y,41.9960036,-87.7414034
MLS Listing,,Condo/Co-op,1000 W Adams St #201,CHICAGO,IL,60607,525000,2,2.0,Near West Side,1434,,2001,47,366,635,Active,November-10-2018 10:00 AM,November-10-2018 12:00 PM,http://www.redfin.com/IL/Chicago/1000-W-Adams-St-60607/unit-201/home/12725899,MRED,10088564,N,Y,41.8795264,-87.6524415
MLS Listing,,Condo/Co-op,932 N Wood St #3,CHICAGO,IL,60622,525000,2,3.0,West Town,2000,3125,2000,47,263,277,Active,,,http://www.redfin.com/IL/Chicago/932-N-Wood-St-60622/unit-3/home/12739911,MRED,10088306,N,Y,41.8987854,-87.6725724
MLS Listing,,Multi-Family (2-4 Unit),6218 N OAKLEY Ave,CHICAGO,IL,60659,525000,6,6.0,West Ridge,,4158,1921,47,,,Active,,,http://www.redfin.com/IL/Chicago/6218-N-Oakley-Ave-60659/unit-2/home/13408315,MRED,10088269,N,Y,41.9947234,-87.6876822
MLS Listing,,Condo/Co-op,195 N HARBOR Dr #4505,CHICAGO,IL,60601,529000,2,2.0,Loop,1300,,1991,47,407,733,Active,November-10-2018 12:00 PM,November-10-2018 01:30 PM,http://www.redfin.com/IL/Chicago/195-N-Harbor-Dr-60601/unit-4505/home/14094105,MRED,10088009,N,Y,41.8855212,-87.6146956
MLS Listing,,Single Family Residential,5656 N Prospect Ave,NORWOOD PARK TOWNSHIP,IL,60631,515000,3,1.5,Norwood Park Township,1781,8668,1963,47,289,,Active,,,http://www.redfin.com/IL/Chicago/5656-Prospect-Ave-60631/home/13562842,MRED,10087684,N,Y,41.9830478,-87.8333702
MLS Listing,,Single Family Residential,5822 W Berenice Ave,CHICAGO,IL,60634,549900,6,3.5,Portage Park,2600,4303,1906,47,212,,Active,,,http://www.redfin.com/IL/Chicago/5822-W-Berenice-Ave-60634/home/13466558,MRED,10087619,N,Y,41.9505407,-87.7728408
MLS Listing,,Condo/Co-op,195 N Harbor Dr #3009,CHICAGO,IL,60601,534500,1,2.0,Loop,1151,,1991,48,464,797,Active,,,http://www.redfin.com/IL/Chicago/195-N-Harbor-Dr-60601/unit-3009/home/14094252,MRED,10087210,N,Y,41.8855212,-87.6146956
MLS Listing,,Condo/Co-op,1525 N Wicker Park Ave #2,CHICAGO,IL,60622,500000,3,2.0,West Town,1700,,,48,294,311,Active,,,http://www.redfin.com/IL/Chicago/1525-N-Wicker-Park-Ave-60622/unit-2/home/12616835,MRED,10086907,N,Y,41.9088662,-87.6766544
MLS Listing,,Condo/Co-op,1606 W North Ave,CHICAGO,IL,60622,534900,3,2.0,West Town,1600,3125,2008,48,334,241,Active,,,http://www.redfin.com/IL/Chicago/1606-W-North-Ave-60622/Ph/home/12608732,MRED,10086725,N,Y,41.9108372,-87.667992
MLS Listing,,Condo/Co-op,500 W Superior St #1602,CHICAGO,IL,60654,525000,2,2.0,Near North Side,1200,,2004,48,438,823,Active,,,http://www.redfin.com/IL/Chicago/500-W-Superior-St-60654/unit-1602/home/18946880,MRED,10086269,N,Y,41.8957754,-87.6422178
MLS Listing,,Condo/Co-op,925 N Willard Ct Unit 1E,CHICAGO,IL,60642,549900,2,2.0,West Town,2000,,1995,49,275,215,Active,,,http://www.redfin.com/IL/Chicago/925-N-Willard-Ct-60642/unit-1E/home/12789004,MRED,10086068,N,Y,41.8989941,-87.6583827
MLS Listing,,Condo/Co-op,405 N Wabash Ave #4404,CHICAGO,IL,60611,525000,2,2.0,Near North Side,1250,,1977,49,420,1077,Active,,,http://www.redfin.com/IL/Chicago/405-N-Wabash-Ave-60611/unit-4404/home/14099276,MRED,10085758,N,Y,41.889792,-87.6260503
MLS Listing,,Single Family Residential,4515 N Western Ave,CHICAGO,IL,60625,550000,3,2.5,Lincoln Square,2650,2648,1891,49,208,,Active,,,http://www.redfin.com/IL/Chicago/4515-N-Western-Ave-60625/home/13392459,MRED,10085299,N,Y,41.963694,-87.6884382
MLS Listing,,Single Family Residential,7237 N Overhill Ave,CHICAGO,IL,60631,549900,4,3.5,Edison Park,3060,5375,1955,49,180,,Active,,,http://www.redfin.com/IL/Chicago/7237-N-Overhill-Ave-60631/home/22979526,MRED,10085218,N,Y,42.0125377,-87.8185322
MLS Listing,,Multi-Family (2-4 Unit),2433 N Harding Ave,CHICAGO,IL,60647,549000,6,3.0,Logan Square,,3125,,49,,,Active,,,http://www.redfin.com/IL/Chicago/2433-N-Harding-Ave-60647/unit-1/home/13446318,MRED,10085172,N,Y,41.925546,-87.7252315
MLS Listing,,Townhouse,1513 N Clybourn Ave Unit B,CHICAGO,IL,60610,549000,2,2.5,Near North Side,,992,1998,49,,385,Active,,,http://www.redfin.com/IL/Chicago/1513-N-Clybourn-Ave-60610/unit-B/home/12791152,MRED,10085118,N,Y,41.909115,-87.646391
MLS Listing,,Condo/Co-op,3051 W Diversey Ave #2,CHICAGO,IL,60647,529900,3,2.0,Logan Square,1900,,2015,49,279,187,Active,,,http://www.redfin.com/IL/Chicago/3051-W-Diversey-Ave-60647/unit-2/home/144510965,MRED,10084850,N,Y,41.9318392,-87.7045735
MLS Listing,,Multi-Family (5+ Unit),4858 S Springfield Ave,CHICAGO,IL,60632,519900,13,6.0,Archer Heights,,3920,1926,51,,,Active,,,http://www.redfin.com/IL/Chicago/4858-S-Springfield-Ave-60632/home/22777443,MRED,10084468,N,Y,41.8047364,-87.7210079
MLS Listing,,Condo/Co-op,632 W Wrightwood Ave Unit 2E,CHICAGO,IL,60614,550000,2,2.0,Lincoln Park,1600,,1998,52,344,383,Active,,,http://www.redfin.com/IL/Chicago/632-W-Wrightwood-Ave-60614/unit-2E/home/12805298,MRED,10083489,N,Y,41.929704,-87.644165
MLS Listing,,Multi-Family (2-4 Unit),5252 W Patterson Ave,CHICAGO,IL,60641,515000,6,3.0,Portage Park,,4356,1951,52,,,Active,,,http://www.redfin.com/IL/Chicago/5252-W-Patterson-Ave-60641/home/13462406,MRED,10083094,N,Y,41.9471163,-87.7590928
MLS Listing,,Condo/Co-op,450 E Waterside Dr #1709,CHICAGO,IL,60601,549888,1,1.5,Loop,,,2007,52,,672,Active,,,http://www.redfin.com/IL/Chicago/450-E-Waterside-Dr-60601/unit-1709/home/39520166,MRED,10082769,N,Y,41.887094,-87.6153778
MLS Listing,,Condo/Co-op,3001 N Damen Ave #4,CHICAGO,IL,60618,500000,2,2.0,North Center,1750,4125,,53,286,237,Active,,,http://www.redfin.com/IL/Chicago/3001-N-Damen-Ave-60618/unit-4/home/12668915,MRED,10082184,N,Y,41.9360683,-87.6778824
MLS Listing,,Condo/Co-op,565 W Quincy St #608,CHICAGO,IL,60661,518500,2,2.0,Near West Side,1386,,2008,53,374,591,Active,,,http://www.redfin.com/IL/Chicago/565-W-Quincy-St-60661/unit-608/home/39567987,MRED,10081886,N,Y,41.8783464,-87.6420845
MLS Listing,,Condo/Co-op,1312 N Cleveland Ave Unit 1S,CHICAGO,IL,60610,549000,2,2.5,Near North Side,,,2018,54,,260,Active,,,http://www.redfin.com/IL/Chicago/1312-N-Cleveland-Ave-60610/unit-1S/home/147761169,MRED,10080994,N,Y,41.906124,-87.64117
MLS Listing,,Condo/Co-op,420 E Waterside Dr #1403,CHICAGO,IL,60601,500000,2,2.0,Loop,1117,,2007,54,448,627,Active,,,http://www.redfin.com/IL/Chicago/420-E-Waterside-Dr-60601/unit-1403/home/18935351,MRED,10080981,N,Y,41.8871935,-87.6161158
MLS Listing,,Condo/Co-op,5008 N Lincoln Ave Unit 3S,CHICAGO,IL,60625,550000,3,2.0,Lincoln Square,2100,2100,2015,54,262,336,Active,,,http://www.redfin.com/IL/Chicago/5008-N-Lincoln-Ave-60625/unit-3S/home/53395721,MRED,10080300,N,Y,41.972098,-87.691138
MLS Listing,,Condo/Co-op,1012 N PAULINA St #2,CHICAGO,IL,60622,515000,2,2.0,West Town,,3072,2018,54,,166,Active,,,http://www.redfin.com/IL/Chicago/1012-N-Paulina-St-60622/unit-2/home/145191206,MRED,10080287,N,Y,41.9001137,-87.6701054
MLS Listing,,Single Family Residential,6908 N Owen Ave,CHICAGO,IL,60631,549400,3,2.5,Edison Park,1818,3497,1936,54,302,,Active,,,http://www.redfin.com/IL/Chicago/6908-N-Owen-Ave-60631/home/13636896,MRED,10080271,N,Y,42.005768,-87.8192912
MLS Listing,,Condo/Co-op,155 N Harbor Dr #4602,CHICAGO,IL,60601,540000,2,2.0,Loop,1140,,1974,54,474,884,Active,,,http://www.redfin.com/IL/Chicago/155-N-Harbor-Dr-60601/unit-4602/home/14092792,MRED,10080112,N,Y,41.8850094,-87.6148097
MLS Listing,,Vacant Land,1924 W Berenice Ave,CHICAGO,IL,60613,525000,,,North Center,,3049,,55,,,Active,,,http://www.redfin.com/IL/Chicago/1924-W-Berenice-Ave-60613/home/13388328,MRED,10079813,N,Y,41.9516258,-87.6778955
MLS Listing,,Condo/Co-op,940 N Wolcott Ave #2,CHICAGO,IL,60622,525000,2,2.0,West Town,,,2019,55,,220,Active,,,http://www.redfin.com/IL/Chicago/940-N-Wolcott-Ave-60622/unit-2/home/147025614,MRED,10079810,N,Y,41.8989706,-87.67492
MLS Listing,,Townhouse,2314 W WOLFRAM St,CHICAGO,IL,60618,550000,3,2.5,Logan Square,2600,1075,2003,55,212,250,Active,,,http://www.redfin.com/IL/Chicago/2314-W-Wolfram-St-60618/unit-100/home/12683025,MRED,10079600,N,Y,41.9334094,-87.6864538
MLS Listing,,Condo/Co-op,1516 W Grand Ave Unit 4W,CHICAGO,IL,60642,505000,2,2.0,West Town,1460,,2001,55,346,195,Active,,,http://www.redfin.com/IL/Chicago/1516-W-Grand-Ave-60642/unit-4W/home/12689190,MRED,10079563,N,Y,41.891293,-87.666287
MLS Listing,,Condo/Co-op,1420 W Chestnut St #2,CHICAGO,IL,60642,549888,3,2.0,West Town,,3072,2018,55,,150,Active,,,http://www.redfin.com/IL/Chicago/1420-W-Chestnut-St-60642/unit-2/home/146414844,MRED,10079541,N,Y,41.8981352,-87.6633243
MLS Listing,,Condo/Co-op,40 E 9TH St #1210,CHICAGO,IL,60605,550000,3,2.5,Loop,2010,,1920,55,274,1347,Active,,,http://www.redfin.com/IL/Chicago/40-E-9th-St-60605/unit-1210/home/147904294,MRED,10079437,N,Y,41.8707384,-87.6263891
MLS Listing,,Condo/Co-op,1027 N Winchester Ave #3,CHICAGO,IL,60622,539000,3,2.0,West Town,1600,,2000,55,337,245,Active,,,http://www.redfin.com/IL/Chicago/1027-N-Winchester-Ave-60622/unit-3/home/12753985,MRED,10079304,N,Y,41.9003926,-87.6755881
MLS Listing,,Condo/Co-op,4845 N Keystone Ave Unit 1N,CHICAGO,IL,60630,525000,5,3.0,Albany Park,,6250,2018,55,,180,Active,,,http://www.redfin.com/IL/Chicago/4845-N-Keystone-Ave-60630/unit-1N/home/147023887,MRED,10079175,N,Y,41.9695965,-87.7287859
MLS Listing,,Townhouse,1244 W MONROE St #3,CHICAGO,IL,60607,514900,2,2.0,Near West Side,1589,638,2006,55,324,170,Active,,,http://www.redfin.com/IL/Chicago/1244-W-Monroe-St-60607/unit-3/home/28709808,MRED,10079020,N,Y,41.8806146,-87.6588245
MLS Listing,,Multi-Family (2-4 Unit),5422 W WINDSOR Ave,CHICAGO,IL,60630,509000,9,5.0,Portage Park,,7410,1957,56,,,Active,,,http://www.redfin.com/IL/Chicago/5422-W-Windsor-Ave-60630/home/13479307,MRED,10078594,N,Y,41.9635203,-87.7634564
MLS Listing,,Multi-Family (2-4 Unit),3925 N Kimball Ave,CHICAGO,IL,60618,549900,7,3.0,Irving Park,,3125,,56,,,Active,,,http://www.redfin.com/IL/Chicago/3925-N-Kimball-Ave-60618/home/13455388,MRED,10078018,N,Y,41.952824,-87.7126242
MLS Listing,,Condo/Co-op,2423 W Haddon Ave #3,CHICAGO,IL,60622,524900,2,2.0,West Town,1360,2880,2018,56,386,259,Active,,,http://www.redfin.com/IL/Chicago/2423-W-Haddon-Ave-60622/unit-3/home/146077892,MRED,10077930,N,Y,41.9018584,-87.6879472
MLS Listing,,Condo/Co-op,3227 N Kenmore Ave #2,CHICAGO,IL,60657,549000,2,2.0,Lake View,,,2014,57,,187,Active,,,http://www.redfin.com/IL/Chicago/3227-N-Kenmore-Ave-60657/unit-2/home/145010874,MRED,10077114,N,Y,41.9407104,-87.6551651
MLS Listing,,Condo/Co-op,1200 W Monroe St #914,CHICAGO,IL,60607,500000,3,2.0,Near West Side,,,2004,59,,565,Active,,,http://www.redfin.com/IL/Chicago/1200-W-Monroe-St-60607/unit-914/home/12646012,MRED,10076025,N,Y,41.8810641,-87.6574278
MLS Listing,,Townhouse,1714 W BELMONT Ave Unit A,CHICAGO,IL,60657,539000,3,2.0,Lake View,,,1998,59,,156,Active,,,http://www.redfin.com/IL/Chicago/1714-W-Belmont-Ave-60657/unit-A/home/12717124,MRED,10076013,N,Y,41.939918,-87.67182
MLS Listing,,Multi-Family (5+ Unit),3245 W 23rd St,CHICAGO,IL,60623,525000,12,6.0,South Lawndale,,2613,1905,59,,,Active,,,http://www.redfin.com/IL/Chicago/3245-W-23rd-St-60623/home/14150549,MRED,10075904,N,Y,41.8497027,-87.7070432
MLS Listing,,Condo/Co-op,15 E DIVISION St Unit 2W,CHICAGO,IL,60610,549995,2,2.0,Near North Side,1415,,1907,59,389,477,Active,,,http://www.redfin.com/IL/Chicago/15-E-Division-St-60610/unit-2W/home/14123145,MRED,10075903,N,Y,41.903744,-87.6280249
MLS Listing,,Condo/Co-op,921 N La Salle Dr Unit 11-12,CHICAGO,IL,60610,500000,2,2.0,Near North Side,1400,,1923,60,357,414,Active,,,http://www.redfin.com/IL/Chicago/921-N-LaSalle-Dr-60610/unit-11-12/home/146984224,MRED,10074364,N,Y,41.8996464,-87.6324619
MLS Listing,,Condo/Co-op,1660 N LaSalle Dr #1702,CHICAGO,IL,60614,500000,2,2.0,Lincoln Park,1076,,1971,60,465,810,Active,,,http://www.redfin.com/IL/Chicago/1660-N-LaSalle-Dr-60614/unit-1702/home/146984045,MRED,10074307,N,Y,41.912668,-87.6334836
MLS Listing,,Single Family Residential,8 Gillick St,PARK RIDGE,IL,60068,544900,4,3.0,Park Ridge,2500,5998,1939,60,218,,Active,,,http://www.redfin.com/IL/Park-Ridge/8-Gillick-St-60068/home/13637031,MRED,10074147,N,Y,42.0025418,-87.8217574
MLS Listing,,Vacant Land,2416 N Western Ave,CHICAGO,IL,60647,534999,,,Logan Square,,2613,,60,,,Active,,,http://www.redfin.com/IL/Chicago/2416-N-Western-Ave-60647/home/106214725,MRED,10074122,N,Y,41.9254955,-87.6880628
MLS Listing,,Condo/Co-op,333 N Jefferson St #404,CHICAGO,IL,60661,508000,2,2.0,Near West Side,1400,,1999,60,363,490,Active,,,http://www.redfin.com/IL/Chicago/333-N-Jefferson-St-60661/unit-404/home/12789194,MRED,10069443,N,Y,41.8878211,-87.6423935
MLS Listing,,Single Family Residential,704 E Bowen Ave,CHICAGO,IL,60653,524996,4,2.5,Grand Boulevard,3500,2260,1893,60,150,,Active,,,http://www.redfin.com/IL/Chicago/704-E-Bowen-Ave-60653/home/13960688,MRED,10073672,N,Y,41.8196897,-87.6091782
MLS Listing,,Condo/Co-op,1841 S Calumet Ave Unit T4,CHICAGO,IL,60616,519900,3,2.5,Near South Side,1880,1880,,61,277,1138,Active,,,http://www.redfin.com/IL/Chicago/1841-S-Calumet-Ave-60616/unit-T4/home/18912860,MRED,10073429,N,Y,41.8573213,-87.6189079
MLS Listing,,Single Family Residential,2800 W estes Ave,CHICAGO,IL,60645,524000,5,2.5,West Ridge,1825,4090,1953,61,287,,Active,,,http://www.redfin.com/IL/Chicago/2800-W-Estes-Ave-60645/home/13586654,MRED,10073295,N,Y,42.0104618,-87.6999217
MLS Listing,,Condo/Co-op,1717 S Prairie Ave #905,CHICAGO,IL,60616,550000,3,2.0,Near South Side,1570,,2003,61,350,852,Active,,,http://www.redfin.com/IL/Chicago/1717-S-Prairie-Ave-60616/unit-905/home/12635834,MRED,10073254,N,Y,41.8584961,-87.6199206
MLS Listing,,Condo/Co-op,851 N California Ave #3,CHICAGO,IL,60622,519000,3,2.0,West Town,,,2018,61,,160,Active,,,http://www.redfin.com/IL/Chicago/851-N-California-Ave-60622/unit-3/home/146978133,MRED,10073100,N,Y,41.897201,-87.6964106
MLS Listing,,Condo/Co-op,401 N WABASH Ave Unit 77C,CHICAGO,IL,60611,500000,0,1.0,Near North Side,713,,2008,61,701,712,Active,,,http://www.redfin.com/IL/Chicago/401-N-Wabash-Ave-60611/unit-77C/home/40378951,MRED,10072908,N,Y,41.8888031,-87.626312
MLS Listing,,Condo/Co-op,2341 W Roscoe St Unit 2W,CHICAGO,IL,60618,550000,3,2.0,North Center,,,2018,61,,207,Active,,,http://www.redfin.com/IL/Chicago/2341-W-Roscoe-St-60618/unit-2W/home/144762068,MRED,10072406,N,Y,41.9428469,-87.6873794
MLS Listing,,Townhouse,1208 S Federal St Unit C,CHICAGO,IL,60605,525000,3,2.0,Near South Side,1683,,1991,62,312,275,Active,,,http://www.redfin.com/IL/Chicago/1208-S-Federal-St-60605/unit-C/home/14084171,MRED,10070934,N,Y,41.867018,-87.629777
MLS Listing,,Condo/Co-op,1526 W Jackson Blvd #1,CHICAGO,IL,60607,500000,2,2.5,Near West Side,,,,62,,296,Active,,,http://www.redfin.com/IL/Chicago/1526-W-Jackson-Blvd-60607/unit-1/home/12658481,MRED,10070766,N,Y,41.877997,-87.665507
MLS Listing,,Condo/Co-op,2240 W North Ave Unit 3W,CHICAGO,IL,60647,515000,3,2.0,West Town,1500,,2005,62,343,238,Active,,,http://www.redfin.com/IL/Chicago/2240-W-North-Ave-60647/unit-3W/home/21805452,MRED,10070755,N,Y,41.91047,-87.6840792
MLS Listing,,Single Family Residential,1033 E 49th St,CHICAGO,IL,60615,524900,5,3.0,Kenwood,2104,2844,1887,62,249,,Active,,,http://www.redfin.com/IL/Chicago/1033-E-49th-Dr-60615/home/13950665,MRED,10070679,N,Y,41.8057123,-87.6002747
MLS Listing,,Multi-Family (2-4 Unit),2442 W Winnemac Ave,CHICAGO,IL,60625,529900,5,3.0,Lincoln Square,,3920,1900,66,,,Active,,,http://www.redfin.com/IL/Chicago/2442-W-Winnemac-Ave-60625/home/13489492,MRED,10069172,N,Y,41.9731767,-87.6908352
MLS Listing,,Condo/Co-op,100 E Walton St Unit 41DE,CHICAGO,IL,60611,540000,2,2.5,Near North Side,2474,,1971,66,218,2457,Active,,,http://www.redfin.com/IL/Chicago/100-E-Walton-St-60611/unit-41DE/home/14122156,MRED,10068119,N,Y,41.9002461,-87.6251634
MLS Listing,,Condo/Co-op,1505 N FAIRFIELD Ave Unit 1N,CHICAGO,IL,60622,515000,3,2.5,West Town,,,2017,67,,185,Active,,,http://www.redfin.com/IL/Chicago/1505-N-Fairfield-Ave-60622/unit-1N/home/112665458,MRED,10067806,N,Y,41.908571,-87.695354
MLS Listing,,Condo/Co-op,2427 N Clybourn Ave Unit B,CHICAGO,IL,60614,539000,3,2.5,Lincoln Park,2200,536,1994,67,245,80,Active,,,http://www.redfin.com/IL/Chicago/2427-N-Clybourn-Ave-60614/unit-B/home/12753585,MRED,10067780,N,Y,41.92606,-87.669894
MLS Listing,,Single Family Residential,5812 S Michigan Ave,CHICAGO,IL,60637,549000,6,4.5,Washington Park,5549,5296,1890,67,99,,Active,,,http://www.redfin.com/IL/Chicago/5812-S-Michigan-Ave-60637/home/13943538,MRED,10067033,N,Y,41.788828,-87.62278
MLS Listing,,Single Family Residential,1654 W Huron St,CHICAGO,IL,60622,515000,4,2.0,West Town,2200,2905,1887,68,234,,Active,,,http://www.redfin.com/IL/Chicago/1654-W-Huron-St-60622/home/14104490,MRED,10066583,N,Y,41.89445,-87.669428
MLS Listing,,Condo/Co-op,653 N Kingsbury St #1003,CHICAGO,IL,60654,549000,2,2.0,Near North Side,1200,,2003,68,458,782,Active,,,http://www.redfin.com/IL/Chicago/Undisclosed-address-60654/home/12686612,MRED,10065969,N,Y,41.8936637,-87.6410666
MLS Listing,,Multi-Family (2-4 Unit),4818 N Central Ave,CHICAGO,IL,60630,549000,8,5.0,Portage Park,,7405,1919,69,,,Active,,,http://www.redfin.com/IL/Chicago/4818-N-Central-Ave-60630/unit-1/home/13498824,MRED,10065676,N,Y,41.9684082,-87.7679925
MLS Listing,,Single Family Residential,4314 S DREXEL Blvd,CHICAGO,IL,60653,539000,4,3.5,Kenwood,3500,3125,2018,69,154,,Active,,,http://www.redfin.com/IL/Chicago/4314-S-Drexel-Blvd-60653/home/146887673,MRED,10065364,N,Y,41.8162499,-87.6048929
MLS Listing,,Multi-Family (2-4 Unit),4126 N Drake Ave,CHICAGO,IL,60618,540000,7,3.0,Irving Park,,3125,1908,69,,,Active,,,http://www.redfin.com/IL/Chicago/4126-N-Drake-Ave-60618/unit-1ST/home/13482736,MRED,10065220,N,Y,41.9564999,-87.7169057
MLS Listing,,Condo/Co-op,2953 N Damen Ave #1,CHICAGO,IL,60618,534000,3,2.5,North Center,2400,,2004,70,223,190,Active,,,http://www.redfin.com/IL/Chicago/2953-N-Damen-Ave-60618/unit-1/home/12590001,MRED,10064625,N,Y,41.9356223,-87.6778679
MLS Listing,,Condo/Co-op,1742 N Sedgwick St #2,CHICAGO,IL,60614,549900,2,2.0,Lincoln Park,1255,,,73,438,165,Active,,,http://www.redfin.com/IL/Chicago/1742-N-Sedgwick-St-60614/unit-2/home/39518335,MRED,10062588,N,Y,41.9141755,-87.6390631
MLS Listing,,Single Family Residential,4219 S Vincennes Ave,CHICAGO,IL,60653,539000,4,3.5,Grand Boulevard,3200,2757,,73,168,,Active,,,http://www.redfin.com/IL/Chicago/4219-S-Vincennes-Ave-60653/home/12573838,MRED,10062011,N,Y,41.817839,-87.613479
MLS Listing,,Single Family Residential,2328 W Pratt Blvd,Chicago,IL,60645,528000,3,2.5,West Ridge,,7700,,73,,,Active,,,http://www.redfin.com/IL/Chicago/2328-W-Pratt-Blvd-60645/home/13571143,MRED,10061993,N,Y,42.0052967,-87.689218
MLS Listing,,Multi-Family (2-4 Unit),3622 N WHIPPLE St,CHICAGO,IL,60618,519000,5,3.0,Irving Park,,3125,1926,73,,,Active,,,http://www.redfin.com/IL/Chicago/Undisclosed-address-60618/home/13453563,MRED,10061824,N,Y,41.947367,-87.7044738
MLS Listing,,Single Family Residential,2034 W 18TH St,CHICAGO,IL,60608,525000,4,2.0,Lower West Side,1299,3000,1885,74,404,,Active,,,http://www.redfin.com/IL/Chicago/2034-W-18th-St-60608/home/14087354,MRED,10061376,N,Y,41.8578363,-87.6773948
MLS Listing,,Condo/Co-op,2000 N Lincoln Park West St #601,CHICAGO,IL,60614,510000,2,2.0,Lincoln Park,1700,,1930,74,300,1143,Active,,,http://www.redfin.com/IL/Chicago/2000-N-Lincoln-Park-W-60614/unit-601/home/144971709,MRED,10061313,N,Y,41.9196557,-87.6366519
MLS Listing,,Condo/Co-op,1629 S Prairie Ave #1806,CHICAGO,IL,60616,509000,2,2.0,Near South Side,1390,,2009,75,366,661,Active,,,http://www.redfin.com/IL/Chicago/1629-S-Prairie-Ave-60616/unit-1806/home/39573292,MRED,10060353,N,Y,41.8594665,-87.6203861
MLS Listing,,Multi-Family (2-4 Unit),3051 N Drake Ave,CHICAGO,IL,60618,529900,5,3.0,Avondale,,2178,1896,75,,,Active,,,http://www.redfin.com/IL/Chicago/3051-N-Drake-Ave-60618/home/13448045,MRED,10059512,N,Y,41.9370802,-87.7159051
MLS Listing,,Townhouse,1231 W Fletcher St Unit M,CHICAGO,IL,60657,549900,3,2.5,Lake View,,,1988,75,,301,Active,,,http://www.redfin.com/IL/Chicago/1231-W-Fletcher-St-60657/unit-M/home/146806226,MRED,10059432,N,Y,41.9387551,-87.6602365
MLS Listing,,Condo/Co-op,3530 N Lake Shore Dr Unit 7A,CHICAGO,IL,60657,549000,3,3.0,Lake View,2400,,1924,76,229,1550,Active,,,http://www.redfin.com/IL/Chicago/3530-N-Lake-Shore-Dr-60657/unit-7A/home/114087349,MRED,10058717,N,Y,41.9472359,-87.643085
MLS Listing,,Single Family Residential,1356 W 32nd St,CHICAGO,IL,60608,529000,6,3.5,Bridgeport,2200,3000,1995,76,240,,Active,,,http://www.redfin.com/IL/Chicago/1356-W-32nd-St-60608/home/12799248,MRED,10058651,N,Y,41.8362989,-87.660443
MLS Listing,,Multi-Family (2-4 Unit),1824 N KIMBALL Ave,CHICAGO,IL,60647,507000,8,4.0,Logan Square,,4375,1891,77,,,Active,,,http://www.redfin.com/IL/Chicago/1824-N-Kimball-Ave-60647/home/13417688,MRED,10057851,N,Y,41.914548,-87.7121623
MLS Listing,,Condo/Co-op,5415 N SHERIDAN Rd #4611,CHICAGO,IL,60640,550000,3,4.0,Edgewater,,,1973,77,,1681,Active,,,http://www.redfin.com/IL/Chicago/5415-N-Sheridan-Rd-60640/unit-4611/home/13400679,MRED,10057775,N,Y,41.9803382,-87.6544912
MLS Listing,,Single Family Residential,5246 Pratt Ave,SKOKIE,IL,60077,509500,4,2.5,Skokie,3100,8498,1970,77,164,,Active,,,http://www.redfin.com/IL/Skokie/5246-Pratt-Ave-60077/home/13592465,MRED,10057195,N,Y,42.0049278,-87.7596118
MLS Listing,,Condo/Co-op,1515 N Astor St Unit 7C,CHICAGO,IL,60610,514900,2,2.0,Near North Side,1850,,1969,80,278,1833,Active,,,http://www.redfin.com/IL/Chicago/1515-N-Astor-St-60610/unit-7C/home/14125414,MRED,10055026,N,Y,41.9101356,-87.6271603
MLS Listing,,Single Family Residential,6917 W Balmoral Ave,CHICAGO,IL,60656,549000,3,3.0,Norwood Park,2500,5000,,82,220,,Active,,,http://www.redfin.com/IL/Chicago/6917-W-Balmoral-Ave-60656/home/144558426,MRED,10052783,N,Y,41.978495,-87.8004051
MLS Listing,,Multi-Family (2-4 Unit),3029 S Lowe Ave,CHICAGO,IL,60616,550000,9,2.0,Bridgeport,,3049,1875,82,,,Active,,,http://www.redfin.com/IL/Chicago/3029-S-Lowe-Ave-60616/home/14081989,MRED,10052601,N,Y,41.8390385,-87.6423791
MLS Listing,,Condo/Co-op,400 E Randolph St #2623,CHICAGO,IL,60601,550000,3,2.0,Loop,1500,,1963,83,367,1150,Active,,,http://www.redfin.com/IL/Chicago/400-E-Randolph-St-60601/unit-2623/home/146693912,MRED,10052116,N,Y,41.885003,-87.6168638
MLS Listing,,Multi-Family (2-4 Unit),5222 N Loring Ave,CHICAGO,IL,60630,539900,6,3.0,Jefferson Park,,6098,1924,83,,,Active,,,http://www.redfin.com/IL/Chicago/5222-N-Loring-Ave-60630/unit-1/home/13498980,MRED,10052017,N,Y,41.9762673,-87.7654613
MLS Listing,,Vacant Land,920 E 43rd St,CHICAGO,IL,60653,549000,,,Oakland,,16117,,83,,,Active,,,http://www.redfin.com/IL/Chicago/920-E-43rd-St-60653/home/146688312,MRED,10051912,N,Y,41.817168,-87.602968
MLS Listing,,Condo/Co-op,2001 S Calumet Ave #601,CHICAGO,IL,60616,506982,3,3.5,Near South Side,2400,,1903,84,211,838,Active,,,http://www.redfin.com/IL/Chicago/2001-S-Calumet-Ave-60616/unit-601/home/12692357,MRED,10050904,N,Y,41.8555128,-87.6187066
MLS Listing,,Condo/Co-op,3750 N LAKE SHORE Dr Unit 4D,CHICAGO,IL,60613,549000,2,2.5,Lake View,2200,,1926,84,250,1538,Active,,,http://www.redfin.com/IL/Chicago/3750-N-Lake-Shore-Dr-60613/unit-4D/home/40422374,MRED,10050397,N,Y,41.9519327,-87.6453375
MLS Listing,,Condo/Co-op,21 E Huron St #3801,CHICAGO,IL,60611,540000,1,1.5,Near North Side,1004,,2004,84,538,800,Active,,,http://www.redfin.com/IL/Chicago/21-E-Huron-St-60611/unit-3801/home/12627095,MRED,10049852,N,Y,41.8945046,-87.6271296
MLS Listing,,Townhouse,2711 W GIDDINGS St #1,CHICAGO,IL,60625,508900,3,3.0,Lincoln Square,2500,3750,1918,84,204,278,Active,,,http://www.redfin.com/IL/Chicago/2711-W-Giddings-St-60625/unit-1/home/26804777,MRED,10049776,N,Y,41.9673729,-87.696685
MLS Listing,,Condo/Co-op,3152 N Hudson Ave #2,CHICAGO,IL,60657,550000,3,2.0,Lake View,,,1919,86,,526,Active,,,http://www.redfin.com/IL/Chicago/3152-N-Hudson-Ave-60657/unit-2/home/13372774,MRED,10049056,N,Y,41.9392916,-87.6411818
MLS Listing,,Townhouse,740 W Webster Ave Unit E,CHICAGO,IL,60614,525000,3,2.0,Lincoln Park,1700,,1973,87,309,38,Active,,,http://www.redfin.com/IL/Chicago/740-W-Webster-Ave-60614/unit-E/home/146604835,MRED,10048544,N,Y,41.922015,-87.647879
MLS Listing,,Multi-Family (2-4 Unit),2059 W Ohio St,CHICAGO,IL,60612,500000,5,2.0,West Town,,1306,1888,88,,,Active,,,http://www.redfin.com/IL/Chicago/2059-W-Ohio-St-60612/home/14105565,MRED,10047438,N,Y,41.8920708,-87.6792051
MLS Listing,,Single Family Residential,4342 S Forrestville Ave,CHICAGO,IL,60653,529900,4,3.5,Grand Boulevard,4177,2874,,88,127,,Active,,,http://www.redfin.com/IL/Chicago/4342-S-Forrestville-Ave-60653/home/13961456,MRED,10047385,N,Y,41.8153849,-87.6131129
MLS Listing,,Single Family Residential,7728 N Sheridan Rd,CHICAGO,IL,60626,550000,3,2.0,Rogers Park,2097,9178,1918,89,262,,Active,,,http://www.redfin.com/IL/Chicago/7728-N-Sheridan-Rd-60626/home/13576500,MRED,10045878,N,Y,42.0220441,-87.6672445
MLS Listing,,Condo/Co-op,1901 S Calumet Ave #807,CHICAGO,IL,60616,549900,3,2.0,Near South Side,1625,,2007,89,338,845,Active,,,http://www.redfin.com/IL/Chicago/1901-S-Calumet-Ave-60616/unit-807/home/12970223,MRED,10045633,N,Y,41.8564726,-87.6189239
MLS Listing,,Condo/Co-op,400 N LASALLE St #1602,CHICAGO,IL,60654,500000,2,2.0,Near North Side,1271,,2003,89,393,874,Active,,,http://www.redfin.com/IL/Chicago/400-N-LaSalle-Dr-60654/unit-1602/home/12625211,MRED,10044960,N,Y,41.8895851,-87.6330529
MLS Listing,,Condo/Co-op,1550 N Bell Ave Unit 2A,CHICAGO,IL,60622,549000,2,2.0,West Town,,,2004,90,,296,Active,,,http://www.redfin.com/IL/Chicago/1550-N-Bell-Ave-60647/unit-2A/home/146500642,MRED,10044464,N,Y,41.9101777,-87.6837631
MLS Listing,,Condo/Co-op,500 W SUPERIOR St #1802,CHICAGO,IL,60654,547747,2,2.0,Near North Side,1200,,1974,90,456,823,Active,November-11-2018 12:00 PM,November-11-2018 02:00 PM,http://www.redfin.com/IL/Chicago/500-W-Superior-St-60654/unit-1802/home/12604371,MRED,10044079,N,Y,41.8957754,-87.6422178
MLS Listing,,Condo/Co-op,2228 W Belden Ave Unit 1E,CHICAGO,IL,60647,550000,3,2.5,Logan Square,,,2006,91,,136,Active,,,http://www.redfin.com/IL/Chicago/2228-W-Belden-Ave-60647/unit-1E/home/18925193,MRED,10043153,N,Y,41.9236103,-87.6838845
MLS Listing,,Condo/Co-op,1313 N RITCHIE Ct #2301,CHICAGO,IL,60610,545000,2,2.0,Near North Side,1300,,1973,94,419,1005,Active,,,http://www.redfin.com/IL/Chicago/1313-N-Ritchie-Ct-60610/unit-2301/home/14124186,MRED,10040576,N,Y,41.9061903,-87.626278
MLS Listing,,Condo/Co-op,1622 W Beach Ave #2,CHICAGO,IL,60622,520000,3,2.5,West Town,,,2007,94,,150,Active,,,http://www.redfin.com/IL/Chicago/1622-W-Beach-Ave-60622/unit-2/home/26812574,MRED,10040124,N,Y,41.9078109,-87.6685414
MLS Listing,,Single Family Residential,5430 S Ingleside Ave,CHICAGO,IL,60615,519500,4,2.5,Hyde Park,2650,2082,1895,96,196,,Active,,,http://www.redfin.com/IL/Chicago/5430-S-Ingleside-Ave-60615/home/13949908,MRED,10037601,N,Y,41.7968804,-87.6030372
