SALE TYPE,SOLD DATE,PROPERTY TYPE,ADDRESS,CITY,STATE,ZIP,PRICE,BEDS,BATHS,LOCATION,SQUARE FEET,LOT SIZE,YEAR BUILT,DAYS ON MARKET,$/SQUARE FEET,HOA/MONTH,STATUS,NEXT OPEN HOUSE START TIME,NEXT OPEN HOUSE END TIME,URL (SEE http://www.redfin.com/buy-a-home/comparative-market-analysis FOR INFO ON PRICING),SOURCE,MLS#,FAVORITE,INTERESTED,LATITUDE,LONGITUDE
MLS Listing,,Condo/Co-op,1727 S Indiana Ave #225,CHICAGO,IL,60616,250000,1,1.0,Near South Side,,,,3,,385,Active,,,http://www.redfin.com/IL/Chicago/1727-S-Indiana-Ave-60616/unit-225/home/39572534,MRED,10128644,N,Y,41.858339,-87.6218863
MLS Listing,,Condo/Co-op,1620 S Michigan Ave #720,CHICAGO,IL,60616,275000,2,1.0,Near South Side,749,,2006,11,367,252,Active,,,http://www.redfin.com/IL/Chicago/1620-S-Michigan-Ave-60616/unit-720/home/18927319,MRED,10121569,N,Y,41.859565,-87.6242683
MLS Listing,,Single Family Residential,2727 W Flournoy St,CHICAGO,IL,60612,250000,4,4.0,East Garfield Park,2724,3123,1895,12,92,,Active,,,http://www.redfin.com/IL/Chicago/2727-W-Flournoy-St-60612/home/13258862,MRED,10120750,N,Y,41.8726882,-87.6947241
MLS Listing,,Condo/Co-op,2336 W Roscoe St Unit 2F,CHICAGO,IL,60618,250000,2,1.0,North Center,,,,12,,130,Active,,,http://www.redfin.com/IL/Chicago/2336-W-Roscoe-St-60618/unit-2F/home/18914923,MRED,10120451,N,Y,41.9433721,-87.6872156
MLS Listing,,Condo/Co-op,1600 N Halsted St Unit 2I,CHICAGO,IL,60614,255000,1,1.0,Lincoln Park,,,2004,18,,239,Active,,,http://www.redfin.com/IL/Chicago/1600-N-Halsted-St-60614/unit-2I/home/26810222,MRED,10115628,N,Y,41.911144,-87.648605
MLS Listing,,Condo/Co-op,1111 W 14th Pl #110,CHICAGO,IL,60608,275000,2,2.0,Near West Side,1002,,1920,25,274,441,Active,,,http://www.redfin.com/IL/Chicago/1111-W-14th-Pl-60608/unit-110/home/18935047,MRED,10109027,N,Y,41.8622207,-87.6553441
MLS Listing,,Condo/Co-op,440 N Wabash Ave #3004,CHICAGO,IL,60611,250000,1,1.0,Near North Side,,,1991,32,,524,Active,,,http://www.redfin.com/IL/Chicago/440-N-Wabash-Ave-60611/unit-3004/home/12616356,MRED,10102684,N,Y,41.8904191,-87.627462
MLS Listing,,Single Family Residential,10735 S Church St,CHICAGO,IL,60643,265999,4,2.5,Morgan Park,,8851,1910,37,,,Active,,,http://www.redfin.com/IL/Chicago/10735-S-Church-St-60643/home/13073961,MRED,10098299,N,Y,41.6983574,-87.6604827
MLS Listing,,Condo/Co-op,1345 S Wabash Ave #1107,CHICAGO,IL,60605,259500,1,1.0,Near South Side,762,,2015,59,341,280,Active,,,http://www.redfin.com/IL/Chicago/1345-S-Wabash-Ave-60605/unit-1107/home/77350025,MRED,10067789,N,Y,41.8644184,-87.625483
MLS Listing,,Condo/Co-op,2222 W Diversey Ave #305,CHICAGO,IL,60647,250000,2,1.5,Logan Square,1000,,1996,60,250,305,Active,,,http://www.redfin.com/IL/Chicago/2222-W-Diversey-Ave-60647/unit-305/home/12806138,MRED,10074549,N,Y,41.9323753,-87.6838868
MLS Listing,,Condo/Co-op,1516 S Wabash Ave #1105,CHICAGO,IL,60605,265000,1,1.5,Near South Side,,,1920,75,,449,Active,,,http://www.redfin.com/IL/Chicago/1516-S-Wabash-Ave-60605/unit-1105/home/12762453,MRED,10057242,N,Y,41.8616383,-87.6261832
Redfin Data,,Condo/Co-op,2744 N Bosworth Ave Unit 1W,Chicago,IL,60614,259500,2,1.0,Chicago,750,,,1,346,150,Pre On-Market,,,http://www.redfin.com/IL/Chicago/2744-N-Bosworth-Ave-60614/unit-1W/home/18918297,Coming Soon,22575,N,Y,41.9319338,-87.6673408
MLS Listing,,Single Family Residential,8346 S Kildare Ave,CHICAGO,IL,60652,265000,4,2.5,Ashburn,,5000,1966,1,,,Active,,,http://www.redfin.com/IL/Chicago/8346-S-Kildare-Ave-60652/home/13969384,MRED,10130822,N,Y,41.7406764,-87.7291706
MLS Listing,,Condo/Co-op,401 E ONTARIO St #2401,CHICAGO,IL,60611,275000,1,1.0,Near North Side,875,,1990,1,314,625,Active,,,http://www.redfin.com/IL/Chicago/401-E-Ontario-St-60611/unit-2401/home/12764928,MRED,10130487,N,Y,41.8932199,-87.6168477
MLS Listing,,Single Family Residential,3747 W 56th Pl,CHICAGO,IL,60629,258200,4,2.0,West Elsdon,1367,3123,1945,1,189,,Active,,,http://www.redfin.com/IL/Chicago/3747-W-56th-Pl-60629/home/14009892,MRED,10130464,N,Y,41.791217,-87.717632
MLS Listing,,Single Family Residential,4721 N Avers Ave,CHICAGO,IL,60625,269997,5,3.0,Albany Park,1663,3750,1910,1,162,,Active,,,http://www.redfin.com/IL/Chicago/4721-N-Avers-Ave-60625/unit-2/home/13486009,MRED,10130222,N,Y,41.9671211,-87.7239803
MLS Listing,,Multi-Family (2-4 Unit),4436 W Montana St,CHICAGO,IL,60639,275000,4,2.0,Hermosa,,2613,1914,1,,,Active,,,http://www.redfin.com/IL/Chicago/4436-W-Montana-St-60639/home/13443602,MRED,10130154,N,Y,41.9255939,-87.738101
MLS Listing,,Single Family Residential,2948 N LINDER Ave,CHICAGO,IL,60641,275000,4,3.0,Belmont Cragin,1492,3750,1923,1,184,,Active,,,http://www.redfin.com/IL/Chicago/2948-N-Linder-Ave-60641/unit-1/home/13442252,MRED,10129873,N,Y,41.9345879,-87.7642553
MLS Listing,,Single Family Residential,5052 S Laporte Ave,CHICAGO,IL,60638,269000,4,3.0,Garfield Ridge,987,3781,1948,1,273,,Active,,,http://www.redfin.com/IL/Chicago/5052-S-Laporte-Ave-60638/home/14025176,MRED,10129860,N,Y,41.8005797,-87.7469032
MLS Listing,,Townhouse,7230 W Balmoral Ave,CHICAGO,IL,60656,257500,2,1.0,Norwood Park,,,1941,1,,,Active,,,http://www.redfin.com/IL/Chicago/7230-W-Balmoral-Ave-60656/home/13556335,MRED,10129765,N,Y,41.9780273,-87.8083558
MLS Listing,,Multi-Family (2-4 Unit),8516 S BURLEY Ave,CHICAGO,IL,60617,260000,17,7.0,South Chicago,,3350,1900,2,,,Active,,,http://www.redfin.com/IL/Chicago/8516-S-Burley-Ave-60617/home/39576199,MRED,10129670,N,Y,41.7405649,-87.54576
MLS Listing,,Single Family Residential,4731 N NAGLE Ave,HARWOOD HEIGHTS,IL,60706,269900,2,1.5,Harwood Heights,1600,,1951,2,169,,Active,,,http://www.redfin.com/IL/Chicago/4731-N-Nagle-Ave-60706/home/13477542,MRED,10129618,N,Y,41.966775,-87.7876696
MLS Listing,,Condo/Co-op,2900 N CENTRAL PARK Ave #1,CHICAGO,IL,60618,259000,2,2.0,Avondale,,3750,,3,,266,Active,,,http://www.redfin.com/IL/Chicago/2900-N-Central-Park-Ave-60618/unit-1/home/26806261,MRED,10129249,N,Y,41.9338447,-87.7175483
MLS Listing,,Single Family Residential,2020 Linden Ave,PARK RIDGE,IL,60068,269000,2,1.0,Park Ridge,1152,3911,,3,234,,Active,,,http://www.redfin.com/IL/Park-Ridge/2020-Linden-Ave-60068/home/13565700,MRED,10129240,N,Y,41.985386,-87.825807
MLS Listing,,Single Family Residential,3003 N Lowell Ave,CHICAGO,IL,60641,275000,5,2.0,Hermosa,1169,3750,1925,3,235,,Active,,,http://www.redfin.com/IL/Chicago/3003-N-Lowell-Ave-60641/home/13443950,MRED,10129138,N,Y,41.9355437,-87.7356721
MLS Listing,,Single Family Residential,4265 W 82nd Pl,CHICAGO,IL,60652,269900,4,2.0,Ashburn,2020,4621,1954,3,134,,Active,,,http://www.redfin.com/IL/Chicago/4265-W-82nd-Pl-60652/home/13969879,MRED,10129037,N,Y,41.7426168,-87.7290167
MLS Listing,,Condo/Co-op,4110 N Wolcott Ave #3,CHICAGO,IL,60613,259000,2,1.0,North Center,,,,3,,299,Active,,,http://www.redfin.com/IL/Chicago/4110-N-Wolcott-Ave-60613/unit-3/home/23092457,MRED,10128892,N,Y,41.9562735,-87.6765877
MLS Listing,,Single Family Residential,5023 N MONITOR Ave,CHICAGO,IL,60630,264700,3,1.0,Jefferson Park,976,3720,1914,3,271,,Active,,,http://www.redfin.com/IL/Chicago/5023-N-Monitor-Ave-60630/home/13501063,MRED,10128789,N,Y,41.9729245,-87.7743539
MLS Listing,,Single Family Residential,3636 W 99th St,EVERGREEN PARK,IL,60805,264900,3,3.0,Evergreen Park,2100,2500,1952,3,126,,Active,,,http://www.redfin.com/IL/Evergreen-Park/3636-W-99th-St-60805/home/13163962,MRED,10128786,N,Y,41.713538,-87.712872
MLS Listing,,Multi-Family (2-4 Unit),204 N LARAMIE Ave,CHICAGO,IL,60644,265000,6,2.0,Austin,,3484,1900,3,,,Active,,,http://www.redfin.com/IL/Chicago/204-N-Laramie-Ave-60644/home/13264832,MRED,10128616,N,Y,41.8845605,-87.7555266
MLS Listing,,Single Family Residential,10116 S Artesian Ave,CHICAGO,IL,60655,274000,3,1.5,Beverly,1394,5000,1945,3,197,,Active,,,http://www.redfin.com/IL/Chicago/10116-S-Artesian-Ave-60655/home/13158325,MRED,10128483,N,Y,41.7094356,-87.683249
MLS Listing,,Single Family Residential,5621 N Kostner Ave,CHICAGO,IL,60646,265000,2,1.0,North Park,1225,3057,1939,3,216,,Active,,,http://www.redfin.com/IL/Chicago/5621-N-Kostner-Ave-60646/home/13513603,MRED,10128460,N,Y,41.9833539,-87.7380859
MLS Listing,,Condo/Co-op,911 W Windsor Ave #1,CHICAGO,IL,60640,275000,2,2.0,Uptown,,,1917,3,,275,Active,,,http://www.redfin.com/IL/Chicago/911-W-Windsor-Ave-60640/unit-1/home/144950986,MRED,10128373,N,Y,41.964258,-87.65293
MLS Listing,,Single Family Residential,11549 S Hale Ave,CHICAGO,IL,60643,264900,5,3.0,Morgan Park,1225,3759,1920,3,216,,Active,,,http://www.redfin.com/IL/Chicago/11549-S-Hale-Ave-60643/home/13069529,MRED,10128341,N,Y,41.6831502,-87.6722333
MLS Listing,,Multi-Family (2-4 Unit),6846 S Chappel Ave,CHICAGO,IL,60649,260000,6,4.0,South Shore,,6098,1913,3,,,Active,,,http://www.redfin.com/IL/Chicago/6846-S-Chappel-Ave-60649/home/13924848,MRED,10128278,N,Y,41.7702266,-87.5755195
MLS Listing,,Single Family Residential,5111 Forster Ave,SCHILLER PARK,IL,60176,260000,3,2.0,Schiller Park,1356,4499,1972,3,192,,Active,,,http://www.redfin.com/IL/Schiller-Park/5111-Forster-Ave-60176/home/13560518,MRED,10128207,N,Y,41.9719125,-87.8671359
MLS Listing,,Condo/Co-op,1850 N Clark St #2005,CHICAGO,IL,60614,265000,1,1.0,Lincoln Park,800,,1969,4,331,689,Active,,,http://www.redfin.com/IL/Chicago/1850-N-Clark-St-60614/unit-2005/home/12699898,MRED,10127784,N,Y,41.9163386,-87.6351202
MLS Listing,,Condo/Co-op,4550 N MALDEN St Unit 2W,CHICAGO,IL,60640,269000,2,2.0,Uptown,1250,,1926,4,215,276,Active,,,http://www.redfin.com/IL/Chicago/4550-N-Malden-St-60640/unit-2W/home/22980125,MRED,10127480,N,Y,41.965031,-87.66279
MLS Listing,,Condo/Co-op,900 N LAKE SHORE Dr #1805,CHICAGO,IL,60611,259000,0,1.0,Near North Side,645,,1955,4,402,349,Active,,,http://www.redfin.com/IL/Chicago/900-N-Lake-Shore-Dr-60611/unit-1805/home/14120521,MRED,10127184,N,Y,41.8996853,-87.6196674
MLS Listing,,Single Family Residential,5855 S Narragansett Ave,CHICAGO,IL,60638,274900,4,2.0,Garfield Ridge,1078,3750,1953,5,255,,Active,,,http://www.redfin.com/IL/Chicago/5855-S-Narragansett-Ave-60638/home/14003606,MRED,10126695,N,Y,41.7852075,-87.7812332
MLS Listing,,Single Family Residential,1239 N Waller Ave,CHICAGO,IL,60651,259900,3,1.0,Austin,1536,4090,1910,5,169,,Active,,,http://www.redfin.com/IL/Chicago/1239-N-Waller-Ave-60651/home/13276541,MRED,10126683,N,Y,41.9033182,-87.767858
MLS Listing,,Condo/Co-op,2915 N Clybourn Ave #209,CHICAGO,IL,60618,265000,2,1.0,North Center,900,,2007,5,294,213,Active,,,http://www.redfin.com/IL/Chicago/2915-N-Clybourn-Ave-60618/unit-209/home/18939020,MRED,10126671,N,Y,41.9346961,-87.6809471
MLS Listing,,Multi-Family (2-4 Unit),631 N HAMLIN Ave,CHICAGO,IL,60624,250000,9,3.0,Humboldt Park,,3049,1895,5,,,Active,,,http://www.redfin.com/IL/Chicago/631-N-Hamlin-Ave-60624/unit-2/home/12572152,MRED,10126354,N,Y,41.8927625,-87.7207425
MLS Listing,,Condo/Co-op,7033 N Kedzie Ave #616,CHICAGO,IL,60645,269000,3,2.0,West Ridge,1900,,,5,142,952,Active,,,http://www.redfin.com/IL/Chicago/7033-N-Kedzie-Ave-60645/unit-616/home/13584881,MRED,10126233,N,Y,42.0091283,-87.7083229
MLS Listing,,Single Family Residential,6217 S Melvina Ave,CHICAGO,IL,60638,250000,3,2.0,Clearing,1552,3781,1944,6,161,,Active,,,http://www.redfin.com/IL/Chicago/6217-S-Melvina-Ave-60638/home/14001217,MRED,10125935,N,Y,41.7790402,-87.7761315
MLS Listing,,Condo/Co-op,3951 W Waveland Ave #2,CHICAGO,IL,60618,265000,2,1.5,Irving Park,1000,,1915,6,265,173,Active,,,http://www.redfin.com/IL/Chicago/3951-W-Waveland-Ave-60618/unit-2/home/12636690,MRED,10125877,N,Y,41.9480458,-87.7270898
MLS Listing,,Condo/Co-op,6100 W Leland Ave #102,Chicago,IL,60630,270000,3,2.0,Portage Park,1500,,1986,6,180,399,Active,,,http://www.redfin.com/IL/Chicago/6100-W-Leland-Ave-60630/unit-102/home/13477227,MRED,10125871,N,Y,41.9659173,-87.7798545
MLS Listing,,Condo/Co-op,3300 W Irving Park Rd Unit J3,CHICAGO,IL,60618,265000,2,1.0,Irving Park,920,,2006,6,288,232,Active,,,http://www.redfin.com/IL/Chicago/3300-W-Irving-Park-Rd-60618/unit-J3/home/18943407,MRED,10125852,N,Y,41.9541947,-87.710955
MLS Listing,,Condo/Co-op,837 N WASHTENAW Ave #1,CHICAGO,IL,60622,275000,2,1.0,West Town,1100,,2009,6,250,128,Active,,,http://www.redfin.com/IL/Chicago/837-N-Washtenaw-Ave-60622/unit-1/home/39563641,MRED,10125743,N,Y,41.8967323,-87.6940888
MLS Listing,,Condo/Co-op,1431 W Rosemont Ave Unit 2E,CHICAGO,IL,60660,274900,2,1.0,Edgewater,1300,,,6,211,410,Active,,,http://www.redfin.com/IL/Chicago/1431-W-Rosemont-Ave-60660/unit-2E/home/13414862,MRED,10125731,N,Y,41.996146,-87.666605
MLS Listing,,Single Family Residential,5747 W 64th St,CHICAGO,IL,60638,254900,3,2.0,Clearing,1122,3497,1958,6,227,,Active,,,http://www.redfin.com/IL/Chicago/5747-W-64th-St-60638/home/13995609,MRED,10125377,N,Y,41.7759401,-87.7659744
MLS Listing,,Single Family Residential,3107 N 77th Ct,ELMWOOD PARK,IL,60707,260000,5,2.0,Elmwood Park,1800,3841,1930,6,144,,Active,,,http://www.redfin.com/IL/Chicago/3107-N-77th-Ct-60707/home/13540692,MRED,10125308,N,Y,41.936473,-87.819781
MLS Listing,,Condo/Co-op,2409 W Catalpa Ave #305,CHICAGO,IL,60625,271450,2,2.0,Lincoln Square,980,,2008,6,277,233,Active,,,http://www.redfin.com/IL/Chicago/2409-W-Catalpa-Ave-60625/unit-305/home/39549084,MRED,10125304,N,Y,41.9810407,-87.6897387
MLS Listing,,Condo/Co-op,6114 S Ellis Ave Unit 3N,CHICAGO,IL,60637,259000,3,2.0,Woodlawn,,,,6,,247,Active,,,http://www.redfin.com/IL/Chicago/6114-S-Ellis-Ave-60637/unit-3N/home/144979977,MRED,10125216,N,Y,41.783544,-87.6014127
MLS Listing,,Single Family Residential,5709 N KARLOV Ave,CHICAGO,IL,60646,275000,3,2.5,North Park,,4125,,6,,,Active,,,http://www.redfin.com/IL/Chicago/5709-N-Karlov-Ave-60646/home/13512693,MRED,10125136,N,Y,41.98461,-87.7306326
MLS Listing,,Condo/Co-op,1522 W Addison St #1,CHICAGO,IL,60613,269000,2,1.0,Lake View,,,,6,,185,Active,,,http://www.redfin.com/IL/Chicago/1522-W-Addison-St-60613/unit-1/home/12600783,MRED,10125104,N,Y,41.9472886,-87.6673697
MLS Listing,,Condo/Co-op,1636 N Wells St #1907,CHICAGO,IL,60614,261000,1,1.0,Lincoln Park,850,,1971,7,307,530,Active,,,http://www.redfin.com/IL/Chicago/1636-N-Wells-St-60614/unit-1907/home/13342370,MRED,10125014,N,Y,41.9122711,-87.6355022
MLS Listing,,Single Family Residential,4959 W Altgeld St,CHICAGO,IL,60639,259900,3,1.0,Belmont Cragin,1400,4029,1916,7,186,,Active,,,http://www.redfin.com/IL/Chicago/4959-W-Altgeld-St-60639/home/13439166,MRED,10124983,N,Y,41.9258524,-87.751095
MLS Listing,,Single Family Residential,3649 W CORTLAND St,CHICAGO,IL,60647,260000,6,3.0,Logan Square,3000,3476,1900,7,87,,Active,,,http://www.redfin.com/IL/Chicago/3649-W-Cortland-St-60647/home/13420014,MRED,10124690,N,Y,41.9152574,-87.7186278
MLS Listing,,Single Family Residential,2349 N Oak Park Ave,CHICAGO,IL,60707,269000,2,2.0,Montclare,,4800,1939,7,,,Active,,,http://www.redfin.com/IL/Chicago/2349-N-Oak-Park-Ave-60707/home/13432006,MRED,10124604,N,Y,41.9226311,-87.7948734
MLS Listing,,Condo/Co-op,200 N JEFFERSON St #1305,CHICAGO,IL,60661,265000,1,1.0,Near West Side,,,2005,7,,444,Active,,,http://www.redfin.com/IL/Chicago/200-N-Jefferson-St-60661/unit-1305/home/18947688,MRED,10124348,N,Y,41.8865695,-87.6433565
MLS Listing,,Condo/Co-op,2745 N Hampden Ct Unit 1E,CHICAGO,IL,60614,275000,2,1.0,Lincoln Park,1200,,1918,7,229,400,Active,,,http://www.redfin.com/IL/Chicago/2745-N-Hampden-Ct-60614/unit-1E/home/13367963,MRED,10124246,N,Y,41.932018,-87.6417171
MLS Listing,,Condo/Co-op,401 E Ontario St #1603,CHICAGO,IL,60611,269000,1,1.0,Near North Side,800,,1990,7,336,482,Active,,,http://www.redfin.com/IL/Chicago/401-E-Ontario-St-60611/unit-1603/home/12765419,MRED,10124102,N,Y,41.8932199,-87.6168477
MLS Listing,,Condo/Co-op,5312 N Winthrop Ave Unit 1S,CHICAGO,IL,60640,269000,2,2.0,Edgewater,1300,,2001,7,207,169,Active,,,http://www.redfin.com/IL/Chicago/5312-N-Winthrop-Ave-60640/unit-1S/home/12700100,MRED,10124065,N,Y,41.9785932,-87.6581708
MLS Listing,,Multi-Family (2-4 Unit),7306 S Stewart Ave,CHICAGO,IL,60621,265000,16,4.0,Englewood,,7405,1880,8,,,Active,,,http://www.redfin.com/IL/Chicago/7306-S-Stewart-Ave-60621/home/13917583,MRED,10123998,N,Y,41.761413,-87.634961
MLS Listing,,Multi-Family (2-4 Unit),5050 W West End Ave,CHICAGO,IL,60644,259900,4,2.0,Austin,,5662,,8,,,Active,,,http://www.redfin.com/IL/Chicago/5050-W-West-End-Ave-60644/home/13263172,MRED,10123849,N,Y,41.8832669,-87.7523063
MLS Listing,,Multi-Family (2-4 Unit),2345 S Lawndale Ave,CHICAGO,IL,60623,269000,5,2.0,South Lawndale,,3484,,9,,,Active,,,http://www.redfin.com/IL/Chicago/2345-S-Lawndale-Ave-60623/home/14150380,MRED,10123734,N,Y,41.8485144,-87.7170404
MLS Listing,,Condo/Co-op,600 S Dearborn St #804,CHICAGO,IL,60605,250000,1,1.0,Loop,1000,,1911,9,250,443,Active,,,http://www.redfin.com/IL/Chicago/600-S-Dearborn-St-60605/unit-804/home/14092607,MRED,10123602,N,Y,41.874026,-87.629441
MLS Listing,,Condo/Co-op,1134 W GRANVILLE Ave #1020,CHICAGO,IL,60660,255000,2,1.0,Edgewater,1025,,2008,9,249,403,Active,,,http://www.redfin.com/IL/Chicago/1134-W-Granville-Ave-60660/unit-1020/home/21673275,MRED,10123559,N,Y,41.9949836,-87.6597551
MLS Listing,,Single Family Residential,2521 W 107th St,CHICAGO,IL,60655,274900,3,1.5,Morgan Park,1402,5187,1945,9,196,,Active,,,http://www.redfin.com/IL/Chicago/2521-W-107th-St-60655/home/13158457,MRED,10123541,N,Y,41.6988092,-87.6847895
MLS Listing,,Condo/Co-op,520 S State St #1412,CHICAGO,IL,60605,275000,1,1.0,Loop,865,,2008,10,318,395,Active,,,http://www.redfin.com/IL/Chicago/520-S-State-St-60605/unit-1412/home/39568358,MRED,10123311,N,Y,41.8763294,-87.6280264
MLS Listing,,Condo/Co-op,125 S JEFFERSON St #2610,CHICAGO,IL,60661,275000,1,1.0,Near West Side,842,,2003,10,327,540,Active,,,http://www.redfin.com/IL/Chicago/125-S-Jefferson-St-60661/unit-2610/home/12680012,MRED,10123257,N,Y,41.8799167,-87.6417716
MLS Listing,,Single Family Residential,2238 N Leclaire Ave,CHICAGO,IL,60639,260000,2,1.0,Belmont Cragin,1462,3750,1923,10,178,,Active,,,http://www.redfin.com/IL/Chicago/2238-N-Leclaire-Ave-60639/home/13426373,MRED,10123019,N,Y,41.9216838,-87.7538636
MLS Listing,,Townhouse,6436 W 65th St #6436,CHICAGO,IL,60638,250000,2,3.0,Clearing,3100,,2003,10,81,177,Active,,,http://www.redfin.com/IL/Chicago/6436-W-65th-St-60638/unit-6436/home/147861778,MRED,10122959,N,Y,41.7741478,-87.7825921
MLS Listing,,Multi-Family (2-4 Unit),515 N Humphrey Ave,OAK PARK,IL,60302,260000,3,2.5,Oak Park,,3920,1952,10,,,Active,,,http://www.redfin.com/IL/Oak-Park/515-N-Humphrey-Ave-60302/home/13275771,MRED,10122883,N,Y,41.8952807,-87.7771211
MLS Listing,,Condo/Co-op,3900 N Lake Shore Dr Unit 19A,CHICAGO,IL,60613,270000,2,2.0,Lake View,1150,,1958,10,235,1186,Active,,,http://www.redfin.com/IL/Chicago/3900-N-Lake-Shore-Dr-60613/unit-19A/home/13379534,MRED,10084960,N,Y,41.9532673,-87.6452796
MLS Listing,,Single Family Residential,3742 W 115th Pl,ALSIP,IL,60803,261500,5,2.0,Alsip/Garden Homes,1800,6351,,10,145,,Active,,,http://www.redfin.com/IL/Alsip/3742-W-115th-Pl-60803/home/145058043,MRED,10122739,N,Y,41.6831388,-87.7145807
MLS Listing,,Single Family Residential,5730 N Merrimac Ave,CHICAGO,IL,60646,254900,2,1.0,Norwood Park,920,3720,1924,10,277,,Active,,,http://www.redfin.com/IL/Chicago/5730-N-Merrimac-Ave-60646/home/13510339,MRED,10122725,N,Y,41.9856552,-87.7843074
MLS Listing,,Vacant Land,1717 S Jefferson St,CHICAGO,IL,60616,274900,,,Lower West Side,,2613,,10,,,Active,,,http://www.redfin.com/IL/Chicago/1717-S-Jefferson-St-60616/home/147718506,MRED,10122408,N,Y,41.8582449,-87.641551
MLS Listing,,Condo/Co-op,6102 N Sheridan Rd #210,CHICAGO,IL,60660,259900,2,2.0,Edgewater,1200,,1988,11,217,300,Active,,,http://www.redfin.com/IL/Chicago/6102-N-Sheridan-Rd-60660/unit-210/home/12653309,MRED,10122121,N,Y,41.9925889,-87.6558748
MLS Listing,,Condo/Co-op,5924 N LINCOLN Ave #306,CHICAGO,IL,60659,255000,2,2.0,West Ridge,,,2005,11,,350,Active,,,http://www.redfin.com/IL/Chicago/5924-N-Lincoln-Ave-60659/unit-306/home/12573351,MRED,10122076,N,Y,41.988563,-87.7049046
MLS Listing,,Condo/Co-op,2704 W CORTLAND St #2,CHICAGO,IL,60647,269900,2,1.0,Logan Square,750,,1929,11,360,255,Active,,,http://www.redfin.com/IL/Chicago/2704-W-Cortland-St-60647/unit-2/home/13011853,MRED,10121993,N,Y,41.9159559,-87.6949276
MLS Listing,,Condo/Co-op,847 W Roscoe St #2,CHICAGO,IL,60657,269000,2,1.0,Lake View,1200,,1892,11,224,113,Active,,,http://www.redfin.com/IL/Chicago/847-W-Roscoe-St-60657/unit-2/home/12741720,MRED,10121958,N,Y,41.9433249,-87.6512387
MLS Listing,,Single Family Residential,3842 W 83rd Pl,CHICAGO,IL,60652,259900,5,2.0,Ashburn,1050,4199,1950,11,248,,Active,,,http://www.redfin.com/IL/Chicago/3842-W-83rd-Pl-60652/home/13965789,MRED,10121955,N,Y,41.7415154,-87.7185123
MLS Listing,,Single Family Residential,1034 N Karlov Ave,CHICAGO,IL,60651,254000,4,2.5,Humboldt Park,2060,3811,1916,11,123,,Active,,,http://www.redfin.com/IL/Chicago/1034-N-Karlov-Ave-60651/home/13282385,MRED,10121905,N,Y,41.8999865,-87.728908
MLS Listing,,Condo/Co-op,1101 S State St #801,CHICAGO,IL,60605,250000,1,1.0,Loop,785,,2005,11,318,617,Active,,,http://www.redfin.com/IL/Chicago/1101-S-State-St-60605/unit-801/home/147934724,MRED,10121597,N,Y,41.8689674,-87.6270061
MLS Listing,,Single Family Residential,812 E 48th St,CHICAGO,IL,60615,269900,4,2.0,Kenwood,1944,2321,1893,11,139,,Active,,,http://www.redfin.com/IL/Chicago/812-E-48th-St-60615/home/13950409,MRED,10121582,N,Y,41.8079182,-87.6058637
MLS Listing,,Condo/Co-op,1146 W Columbia Ave Unit 2E,CHICAGO,IL,60626,260000,2,2.0,Rogers Park,1400,1400,1912,11,186,205,Active,,,http://www.redfin.com/IL/Chicago/1146-W-Columbia-Ave-60626/unit-2E/home/144631568,MRED,10121477,N,Y,42.004783,-87.660443
MLS Listing,,Condo/Co-op,5415 N Sheridan Rd #3511,CHICAGO,IL,60640,275000,2,2.0,Edgewater,1200,,1973,11,229,880,Active,,,http://www.redfin.com/IL/Chicago/5415-N-Sheridan-Rd-60640/unit-3511/home/13401087,MRED,10121351,N,Y,41.9803143,-87.6544409
MLS Listing,,Single Family Residential,3533 W 116th St,CHICAGO,IL,60655,274900,4,2.5,Mount Greenwood,1482,3175,1949,12,185,,Active,,,http://www.redfin.com/IL/Chicago/3533-W-116th-St-60655/home/13133648,MRED,10121212,N,Y,41.682042,-87.709116
MLS Listing,,Single Family Residential,1639 N Parkside Ave,CHICAGO,IL,60639,265900,6,3.0,Austin,3860,3720,,12,69,,Active,,,http://www.redfin.com/IL/Chicago/1639-N-Parkside-Ave-60639/home/13426703,MRED,10121210,N,Y,41.9106162,-87.7665126
MLS Listing,,Single Family Residential,11305 S Drake Ave,CHICAGO,IL,60655,259900,2,2.0,Mount Greenwood,1200,5083,1947,12,217,,Active,,,http://www.redfin.com/IL/Chicago/11305-S-Drake-Ave-60655/home/12575731,MRED,10121133,N,Y,41.6875434,-87.7089677
MLS Listing,,Condo/Co-op,1111 S Wabash Ave #1305,CHICAGO,IL,60605,270000,1,1.5,Loop,900,,2005,12,300,505,Active,,,http://www.redfin.com/IL/Chicago/1111-S-Wabash-Ave-60605/unit-1305/home/12646970,MRED,10121019,N,Y,41.8686923,-87.6253788
MLS Listing,,Townhouse,3107 W Arthur Ave,CHICAGO,IL,60645,259900,3,2.5,West Ridge,,1694,,12,,,Active,,,http://www.redfin.com/IL/Chicago/3107-W-Arthur-Ave-60645/home/13583469,MRED,10120954,N,Y,41.999057,-87.707381
MLS Listing,,Townhouse,4920 W Lawrence Ave,CHICAGO,IL,60630,275000,2,2.0,Forest Glen,1578,918,2000,12,174,200,Active,,,http://www.redfin.com/IL/Chicago/4920-W-Lawrence-Ave-60630/home/12701603,MRED,10120819,N,Y,41.9681506,-87.7511076
MLS Listing,,Single Family Residential,2901 W 98th Pl,EVERGREEN PARK,IL,60805,264900,4,2.0,Evergreen Park,1458,4887,1959,12,182,,Active,,,http://www.redfin.com/IL/Evergreen-Park/2901-W-98th-Pl-60805/home/13160550,MRED,10120623,N,Y,41.7142485,-87.6944161
MLS Listing,,Condo/Co-op,2310 S Canal St #205,CHICAGO,IL,60616,269000,2,2.0,Armour Square,1200,,,12,224,356,Active,,,http://www.redfin.com/IL/Chicago/2310-S-Canal-St-60616/unit-205/home/12714461,MRED,10120416,N,Y,41.8506108,-87.6388175
MLS Listing,,Single Family Residential,5137 S Latrobe Ave,CHICAGO,IL,60638,265000,5,2.5,Garfield Ridge,3750,3750,1970,12,71,,Active,,,http://www.redfin.com/IL/Chicago/5137-Latrobe-Ave-60638/home/14023811,MRED,10120326,N,Y,41.7990422,-87.7536713
MLS Listing,,Single Family Residential,3949 N Nottingham Ave,CHICAGO,IL,60634,275000,3,2.0,Dunning,,3175,1947,12,,,Active,,,http://www.redfin.com/IL/Chicago/3949-N-Nottingham-Ave-60634/home/13470554,MRED,10120267,N,Y,41.9522131,-87.8045919
MLS Listing,,Multi-Family (5+ Unit),1301 S Kildare Ave,CHICAGO,IL,60623,265000,10,7.0,North Lawndale,7269,3150,1924,12,36,,Active,,,http://www.redfin.com/IL/Chicago/1301-S-Kildare-Ave-60623/home/13236668,MRED,10120218,N,Y,41.864125,-87.732092
MLS Listing,,Condo/Co-op,2626 N Lakeview Ave #3404,CHICAGO,IL,60614,274900,1,1.0,Lincoln Park,,,1969,12,,669,Active,,,http://www.redfin.com/IL/Chicago/2626-N-Lakeview-Ave-60614/unit-3404/home/147810023,MRED,10120211,N,Y,41.930388,-87.639456
MLS Listing,,Condo/Co-op,4414 N Ashland Ave Unit 3E,CHICAGO,IL,60640,259500,2,1.0,Uptown,800,,1930,12,324,370,Active,,,http://www.redfin.com/IL/Chicago/4414-N-Ashland-Ave-60640/unit-3E/home/13390449,MRED,10120205,N,Y,41.962143,-87.669727
MLS Listing,,Multi-Family (2-4 Unit),636 N Ridgeway Ave,CHICAGO,IL,60624,269999,9,6.0,Humboldt Park,,3049,2008,13,,,Active,,,http://www.redfin.com/IL/Chicago/636-N-Ridgeway-Ave-60624/home/18953835,MRED,10120145,N,Y,41.8928788,-87.7201574
MLS Listing,,Condo/Co-op,2316 W Shakespeare Ave #2,CHICAGO,IL,60647,265000,1,1.0,Logan Square,,5500,,13,,264,Active,,,http://www.redfin.com/IL/Chicago/2316-W-Shakespeare-Ave-60647/unit-2/home/13164155,MRED,10119999,N,Y,41.9208016,-87.6857296
MLS Listing,,Condo/Co-op,4446 N WOLCOTT Ave Unit 2B,CHICAGO,IL,60640,269000,1,1.0,Lincoln Square,,,,13,,203,Active,,,http://www.redfin.com/IL/Chicago/4446-N-Wolcott-Ave-60640/unit-2B/home/12652415,MRED,10119952,N,Y,41.962894,-87.676458
MLS Listing,,Condo/Co-op,6033 N Sheridan Rd Unit 18F,CHICAGO,IL,60660,259000,2,2.0,Edgewater,1443,,1971,13,179,672,Active,,,http://www.redfin.com/IL/Chicago/6033-N-Sheridan-Rd-60660/unit-18F/home/13411710,MRED,10119945,N,Y,41.9917384,-87.654799
MLS Listing,,Condo/Co-op,751 W Brompton Ave Unit 1W,CHICAGO,IL,60657,269000,1,1.0,Lake View,1000,,,13,269,366,Active,,,http://www.redfin.com/IL/Chicago/751-W-Brompton-Ave-60657/unit-1W/home/147802092,MRED,10119852,N,Y,41.9459843,-87.6486021
MLS Listing,,Condo/Co-op,480 N Mcclurg Ct #1115,CHICAGO,IL,60611,259900,1,1.0,Near North Side,750,,1991,13,347,550,Active,,,http://www.redfin.com/IL/Chicago/480-N-McClurg-Ct-60611/unit-1115/home/146425030,MRED,10119563,N,Y,41.8902845,-87.618133
MLS Listing,,Single Family Residential,2242 N Karlov Ave,CHICAGO,IL,60639,259900,5,2.0,Hermosa,1450,3937,1913,13,179,,Active,,,http://www.redfin.com/IL/Chicago/2242-N-Karlov-Ave-60639/home/13421824,MRED,10119502,N,Y,41.922134,-87.7294014
MLS Listing,,Single Family Residential,6647 S Kilpatrick Ave,CHICAGO,IL,60629,255000,5,2.0,Clearing,996,3750,1958,13,256,,Active,,,http://www.redfin.com/IL/Chicago/6647-S-Kilpatrick-Ave-60629/home/13993847,MRED,10119439,N,Y,41.771585,-87.7393552
MLS Listing,,Condo/Co-op,3100 N Lake Shore Dr #601,CHICAGO,IL,60657,259000,2,2.0,Lake View,1400,,1950,13,185,958,Active,,,http://www.redfin.com/IL/Chicago/3100-N-Lake-Shore-Dr-60657/unit-601/home/13372550,MRED,10119417,N,Y,41.9380386,-87.638027
MLS Listing,,Condo/Co-op,2728 N Hampden Ct #1709,CHICAGO,IL,60614,271000,1,1.0,Lincoln Park,750,,1970,13,361,410,Active,,,http://www.redfin.com/IL/Chicago/2728-N-Hampden-Ct-60614/unit-1709/home/13368978,MRED,10119203,N,Y,41.9312039,-87.6424402
MLS Listing,,Single Family Residential,6312 W MELROSE St,CHICAGO,IL,60634,268900,3,2.0,Dunning,,5113,1963,14,,,Active,,,http://www.redfin.com/IL/Chicago/6312-W-Melrose-St-60634/unit-300/home/13464294,MRED,10119154,N,Y,41.9394694,-87.7841921
MLS Listing,,Single Family Residential,3828 N Plainfield Ave,CHICAGO,IL,60634,252000,3,2.0,Dunning,1500,3720,1952,14,168,,Active,,,http://www.redfin.com/IL/Chicago/3828-N-Plainfield-Ave-60634/home/13546112,MRED,10119153,N,Y,41.9493317,-87.8344258
MLS Listing,,Condo/Co-op,4342 N RICHMOND St Unit 3S,CHICAGO,IL,60618,265000,2,2.0,Irving Park,,,1920,14,,240,Active,,,http://www.redfin.com/IL/Chicago/4342-N-Richmond-St-60618/unit-3S/home/13487852,MRED,10119128,N,Y,41.960731,-87.702454
MLS Listing,,Multi-Family (2-4 Unit),1016 N HAMLIN Ave,CHICAGO,IL,60651,269900,6,3.0,Humboldt Park,,3125,1905,14,,,Active,,,http://www.redfin.com/IL/Chicago/1016-N-Hamlin-Ave-60651/home/13285724,MRED,10119124,N,Y,41.8995833,-87.7215908
MLS Listing,,Townhouse,2923 N Natoma Ave #7,CHICAGO,IL,60634,263000,2,2.0,Montclare,1700,1060,2008,14,155,128,Active,,,http://www.redfin.com/IL/Chicago/2923-N-Natoma-Ave-60634/unit-7/home/18939549,MRED,10119039,N,Y,41.9334951,-87.7912376
MLS Listing,,Single Family Residential,2910 N Moody Ave,CHICAGO,IL,60634,275000,4,1.5,Belmont Cragin,1505,3720,1916,14,183,,Active,,,http://www.redfin.com/IL/Chicago/2910-N-Moody-Ave-60634/home/13437574,MRED,10119000,N,Y,41.9332781,-87.7799554
MLS Listing,,Condo/Co-op,2219 W Monroe St #2,CHICAGO,IL,60612,265000,3,2.0,Near West Side,1600,,1999,14,166,215,Active,,,http://www.redfin.com/IL/Chicago/2219-W-Monroe-St-60612/unit-2/home/12668647,MRED,10118958,N,Y,41.879622,-87.6822948
MLS Listing,,Single Family Residential,5745 W Warwick Ave,CHICAGO,IL,60634,271900,3,2.0,Portage Park,1000,3876,1920,14,272,,Active,,,http://www.redfin.com/IL/Chicago/5745-W-Warwick-Ave-60634/home/13465326,MRED,10118943,N,Y,41.948355,-87.7710484
MLS Listing,,Single Family Residential,4352 W 78th St,CHICAGO,IL,60652,259900,4,1.0,Ashburn,1081,5227,1958,14,240,,Active,,,http://www.redfin.com/IL/Chicago/4352-W-78th-St-60652/home/13979935,MRED,10118856,N,Y,41.751833,-87.7312481
MLS Listing,,Condo/Co-op,565 W Quincy St #1513,CHICAGO,IL,60661,259000,1,1.0,Near West Side,,,2009,14,,244,Active,,,http://www.redfin.com/IL/Chicago/565-W-Quincy-St-60661/unit-1513/home/39567929,MRED,10118649,N,Y,41.8783464,-87.6420845
MLS Listing,,Single Family Residential,5219 W Wrightwood Ave,CHICAGO,IL,60639,269900,6,2.5,Belmont Cragin,2800,3720,1919,14,96,,Active,November-10-2018 10:00 AM,November-10-2018 01:00 PM,http://www.redfin.com/IL/Chicago/5219-W-Wrightwood-Ave-60639/home/13439426,MRED,10118623,N,Y,41.9275378,-87.7570742
MLS Listing,,Single Family Residential,7914 S Troy St,CHICAGO,IL,60652,269900,5,2.0,Ashburn,1504,5000,1956,14,179,,Active,,,http://www.redfin.com/IL/Chicago/7914-S-Troy-St-60652/home/13965142,MRED,10118331,N,Y,41.7491824,-87.701423
MLS Listing,,Condo/Co-op,30 E Huron St #2808,CHICAGO,IL,60611,270000,1,1.0,Near North Side,,,1982,14,,422,Active,,,http://www.redfin.com/IL/Chicago/30-E-Huron-St-60611/unit-2808/home/12648447,MRED,10118241,N,Y,41.8953761,-87.6263728
MLS Listing,,Condo/Co-op,4651 N Dover St #2,CHICAGO,IL,60640,264900,2,1.0,Uptown,1000,,1911,14,265,234,Active,,,http://www.redfin.com/IL/Chicago/4651-N-Dover-St-60640/unit-2/home/12716923,MRED,10118224,N,Y,41.9668903,-87.6652988
MLS Listing,,Single Family Residential,2151 N Natchez Ave,CHICAGO,IL,60707,269999,3,2.0,Belmont Cragin,1200,4033,1922,15,225,,Active,,,http://www.redfin.com/IL/Chicago/2151-N-Natchez-Ave-60707/home/13432059,MRED,10118018,N,Y,41.9197002,-87.7874967
MLS Listing,,Single Family Residential,11153 S Drake Ave,CHICAGO,IL,60655,255000,3,2.5,Mount Greenwood,1370,3811,1927,16,186,,Active,,,http://www.redfin.com/IL/Chicago/11153-S-Drake-Ave-60655/home/13136787,MRED,10117695,N,Y,41.6898793,-87.7090447
MLS Listing,,Townhouse,5231 W Galewood Ave,CHICAGO,IL,60639,259000,4,3.0,Austin,2290,,2008,16,113,242,Active,,,http://www.redfin.com/IL/Chicago/5231-W-Galewood-Ave-60639/home/26806001,MRED,10117493,N,Y,41.9146042,-87.7571742
MLS Listing,,Condo/Co-op,3660 N Lake Shore Dr #1405,CHICAGO,IL,60613,259900,1,1.0,Lake View,,,1987,16,,458,Active,,,http://www.redfin.com/IL/Chicago/3660-N-Lake-Shore-Dr-60613/unit-1405/home/12741823,MRED,10117474,N,Y,41.9495523,-87.645905
MLS Listing,,Single Family Residential,2638 N NEVA Ave,CHICAGO,IL,60707,269900,4,2.0,Montclare,,3750,1923,16,,,Active,,,http://www.redfin.com/IL/Chicago/2638-N-Neva-Ave-60707/home/13433967,MRED,10117377,N,Y,41.9283337,-87.8054369
MLS Listing,,Single Family Residential,3532 N Pittsburgh Ave,CHICAGO,IL,60634,259000,4,1.0,Dunning,1000,5400,1923,17,259,,Active,,,http://www.redfin.com/IL/Chicago/3532-N-Pittsburgh-Ave-60634/home/13545100,MRED,10117334,N,Y,41.9439694,-87.8329384
MLS Listing,,Single Family Residential,7559 S Michigan Ave,Chicago,IL,60619,250000,5,3.0,Greater Grand Crossing,4800,4800,1917,17,52,,Active,November-17-2018 10:00 AM,November-17-2018 02:00 PM,http://www.redfin.com/IL/Chicago/7559-S-Michigan-Ave-60619/home/13919418,MRED,10117251,N,Y,41.7566076,-87.6211254
MLS Listing,,Single Family Residential,3005 N 78th Ct,ELMWOOD PARK,IL,60707,269900,3,1.5,Elmwood Park,1600,5505,1941,17,169,,Active,,,http://www.redfin.com/IL/Chicago/3005-N-78th-Ct-60707/home/13539633,MRED,10117184,N,Y,41.9344617,-87.8221798
MLS Listing,,Single Family Residential,6847 W Armitage Ave,CHICAGO,IL,60707,262500,3,1.5,Austin,1293,3123,1949,17,203,,Active,,,http://www.redfin.com/IL/Chicago/6847-W-Armitage-Ave-60707/home/13430437,MRED,10117137,N,Y,41.9160701,-87.7969407
MLS Listing,,Multi-Family (2-4 Unit),1240 S Avers Ave,CHICAGO,IL,60623,259700,7,2.0,North Lawndale,,3049,1882,17,,,Active,,,http://www.redfin.com/IL/Chicago/1240-S-Avers-Ave-60623/unit-1/home/13234700,MRED,10116975,N,Y,41.8649271,-87.7217447
MLS Listing,,Single Family Residential,4942 S Karlov Ave,CHICAGO,IL,60632,259900,3,2.0,Archer Heights,1215,5671,1919,17,214,,Active,,,http://www.redfin.com/IL/Chicago/4942-S-Karlov-Ave-60632/home/14022988,MRED,10116852,N,Y,41.8029672,-87.7261311
MLS Listing,,Multi-Family (2-4 Unit),2350 S Sacramento Ave,CHICAGO,IL,60623,269900,6,3.0,South Lawndale,,3049,1895,17,,,Active,,,http://www.redfin.com/IL/Chicago/2350-S-Sacramento-Ave-60623/home/13232101,MRED,10116796,N,Y,41.8486025,-87.7004991
MLS Listing,,Single Family Residential,5549 S Natoma Ave,CHICAGO,IL,60638,269900,3,2.0,Garfield Ridge,1650,3781,1917,17,164,,Active,,,http://www.redfin.com/IL/Chicago/5549-S-Natoma-Ave-60638/home/13999683,MRED,10116676,N,Y,41.7907673,-87.787612
MLS Listing,,Multi-Family (2-4 Unit),4514 W Congress Pkwy,CHICAGO,IL,60624,255000,6,2.0,West Garfield Park,,3049,1902,17,,,Active,,,http://www.redfin.com/IL/Chicago/4514-W-Congress-Pkwy-60624/home/13256029,MRED,10116642,N,Y,41.8744046,-87.7382878
MLS Listing,,Condo/Co-op,4800 S Chicago Beach Dr Unit 2608N,Chicago,IL,60615,260000,2,2.0,Kenwood,1200,,1962,17,217,790,Active,,,http://www.redfin.com/IL/Chicago/4800-S-Chicago-Beach-Dr-60615/unit-2608N/home/13947945,MRED,10116565,N,Y,41.806603,-87.586581
MLS Listing,,Multi-Family (2-4 Unit),2165 N Major Ave,CHICAGO,IL,60639,264900,5,2.0,Belmont Cragin,,3375,1923,17,,,Active,,,http://www.redfin.com/IL/Chicago/2165-N-Major-Ave-60639/home/13427717,MRED,10116551,N,Y,41.919877,-87.7680406
MLS Listing,,Single Family Residential,2141 W 22nd Pl,CHICAGO,IL,60608,260000,5,3.0,Lower West Side,1800,3101,1895,18,144,,Active,,,http://www.redfin.com/IL/Chicago/2141-W-22nd-Pl-60608/home/14079474,MRED,10116262,N,Y,41.8510213,-87.6798984
MLS Listing,,Single Family Residential,9345 S Longwood Dr,CHICAGO,IL,60643,269000,5,3.0,Beverly,2305,8598,1924,18,117,,Active,,,http://www.redfin.com/IL/Chicago/9345-S-Longwood-Dr-60643/home/13100273,MRED,10115940,N,Y,41.7240969,-87.6678801
MLS Listing,,Condo/Co-op,6800 N HARLEM Ave #402,CHICAGO,IL,60631,263000,2,2.0,Edison Park,1368,,1992,18,192,387,Active,,,http://www.redfin.com/IL/Chicago/6800-N-Harlem-Ave-60631/unit-402/home/13637776,MRED,10113978,N,Y,42.00509,-87.807074
MLS Listing,,Condo/Co-op,1645 W SCHOOL St #315,CHICAGO,IL,60657,265000,1,1.0,Lake View,,,1997,18,,277,Active,,,http://www.redfin.com/IL/Chicago/1645-W-School-St-60657/unit-315/home/12774170,MRED,10115799,N,Y,41.9412179,-87.6702122
MLS Listing,,Vacant Land,1636 N Whipple St,CHICAGO,IL,60647,269000,,,Humboldt Park,,2613,,18,,,Active,,,http://www.redfin.com/IL/Chicago/1636-N-Whipple-St-60647/home/113614972,MRED,10115565,N,Y,41.91134,-87.703728
MLS Listing,,Condo/Co-op,5502 N Glenwood Ave #2,CHICAGO,IL,60640,265000,1,1.0,Edgewater,,,1915,18,,231,Active,,,http://www.redfin.com/IL/Chicago/5502-N-Glenwood-Ave-60640/unit-2/home/40375274,MRED,10115541,N,Y,41.981886,-87.6652228
MLS Listing,,Single Family Residential,4329 S Karlov Ave,Chicago,IL,60632,250000,4,2.0,Archer Heights,1700,3750,1949,18,147,,Active,,,http://www.redfin.com/IL/Chicago/4329-S-Karlov-Ave-60632/home/14033048,MRED,10115299,N,Y,41.8142902,-87.7259676
MLS Listing,,Multi-Family (2-4 Unit),2211 N Lorel Ave,CHICAGO,IL,60639,259000,4,2.0,Belmont Cragin,,3125,,18,,,Active,,,http://www.redfin.com/IL/Chicago/2211-N-Lorel-Ave-60639/home/13427394,MRED,10115231,N,Y,41.9207961,-87.7595061
MLS Listing,,Single Family Residential,2653 N Melvina Ave,CHICAGO,IL,60639,270000,3,1.0,Belmont Cragin,600,3471,1920,18,450,,Active,,,http://www.redfin.com/IL/Chicago/2653-N-Melvina-Ave-60639/home/144931264,MRED,10115224,N,Y,41.9289642,-87.7802618
MLS Listing,,Townhouse,2919 N Natoma Ave #11,CHICAGO,IL,60634,269000,2,2.0,Montclare,1285,,2008,19,209,125,Active,,,http://www.redfin.com/IL/Chicago/2919-N-Natoma-Ave-60634/unit-11/home/18943214,MRED,10114778,N,Y,41.9333523,-87.7909318
MLS Listing,,Condo/Co-op,200 E Delaware Pl Unit 13E,CHICAGO,IL,60611,275000,1,1.0,Near North Side,1050,,1974,19,262,753,Active,,,http://www.redfin.com/IL/Chicago/200-E-Delaware-Pl-60611/unit-13E/home/14120826,MRED,10114302,N,Y,41.8995109,-87.6211832
MLS Listing,,Single Family Residential,6907 W Farragut Ave,CHICAGO,IL,60656,254900,2,1.0,Norwood Park,,2500,1927,19,,,Active,,,http://www.redfin.com/IL/Chicago/6907-W-Farragut-Ave-60656/home/13507212,MRED,10114137,N,Y,41.9762072,-87.8001747
MLS Listing,,Townhouse,1720 N KEDZIE Ave Unit J,CHICAGO,IL,60647,250000,3,2.5,Humboldt Park,,,1997,20,,,Active,,,http://www.redfin.com/IL/Chicago/1720-N-Kedzie-Ave-60647/unit-J/home/12744315,MRED,10113889,N,Y,41.9125556,-87.7073368
MLS Listing,,Single Family Residential,4343 S King Dr,CHICAGO,IL,60653,269900,4,4.0,Grand Boulevard,2850,3781,1895,20,95,,Active,,,http://www.redfin.com/IL/Chicago/4343-S-Martin-Luther-King-Dr-60653/home/13961052,MRED,10113869,N,Y,41.815401,-87.616066
MLS Listing,,Single Family Residential,6217 W Grand Ave,CHICAGO,IL,60639,255000,4,2.0,Belmont Cragin,1350,2252,1959,20,189,,Active,,,http://www.redfin.com/IL/Chicago/6217-W-Grand-Ave-60639/home/13430050,MRED,10113737,N,Y,41.9214104,-87.7812059
MLS Listing,,Condo/Co-op,20 N State St #609,CHICAGO,IL,60602,253890,1,1.0,Loop,839,,,20,303,521,Active,,,http://www.redfin.com/IL/Chicago/20-N-State-St-60602/unit-609/home/12679594,MRED,10113104,N,Y,41.882832,-87.6284263
MLS Listing,,Single Family Residential,4212 W 81st St,CHICAGO,IL,60652,264900,5,2.0,Ashburn,1100,4778,1972,20,241,,Active,,,http://www.redfin.com/IL/Chicago/4212-W-81st-St-60652/home/13971249,MRED,10113020,N,Y,41.7459551,-87.7268237
MLS Listing,,Condo/Co-op,10 E ONTARIO St #903,CHICAGO,IL,60611,269000,1,1.0,Near North Side,995,,1983,21,270,620,Active,,,http://www.redfin.com/IL/Chicago/10-E-Ontario-St-60611/unit-903/home/12596106,MRED,10112876,N,Y,41.8936405,-87.6275331
MLS Listing,,Single Family Residential,2924 N MOBILE Ave,CHICAGO,IL,60634,259900,3,2.0,Belmont Cragin,,3349,,21,,,Active,,,http://www.redfin.com/IL/Chicago/2924-N-Mobile-Ave-60634/home/13438869,MRED,10112505,N,Y,41.9336579,-87.7835869
MLS Listing,,Condo/Co-op,30 E Huron St #4705,CHICAGO,IL,60611,275000,1,1.0,Near North Side,707,,1983,21,389,450,Active,,,http://www.redfin.com/IL/Chicago/30-E-Huron-St-60611/unit-4705/home/144973852,MRED,10112224,N,Y,41.8951072,-87.6265843
MLS Listing,,Condo/Co-op,360 W Wellington Ave Unit 12F,CHICAGO,IL,60657,258000,2,1.0,Lake View,1165,,1966,21,221,652,Active,,,http://www.redfin.com/IL/Chicago/360-W-Wellington-Ave-60657/unit-12F/home/13371384,MRED,10112095,N,Y,41.9369536,-87.6390351
MLS Listing,,Single Family Residential,6149 W Melrose St,CHICAGO,IL,60634,274900,6,3.0,Dunning,1050,3781,1921,21,262,,Active,,,http://www.redfin.com/IL/Chicago/6149-W-Melrose-St-60634/home/12584028,MRED,10111986,N,Y,41.9390901,-87.7805799
MLS Listing,,Condo/Co-op,3416 W Franklin Blvd #4,CHICAGO,IL,60624,269000,2,2.0,Humboldt Park,1725,,2007,22,156,133,Active,,,http://www.redfin.com/IL/Chicago/3416-W-Franklin-Blvd-60624/unit-4/home/26811023,MRED,10111700,N,Y,41.8905586,-87.7120314
MLS Listing,,Single Family Residential,8199 S TRIPP Ave,CHICAGO,IL,60652,274900,5,2.0,Ashburn,1750,4517,1956,22,157,,Active,,,http://www.redfin.com/IL/Chicago/8199-S-Tripp-Ave-60652/home/13970578,MRED,10111615,N,Y,41.7435451,-87.7287859
MLS Listing,,Single Family Residential,9306 S Vanderpoel Ave,CHICAGO,IL,60643,264900,4,2.5,Beverly,1185,6655,1937,24,224,,Active,,,http://www.redfin.com/IL/Chicago/9306-S-Vanderpoel-Ave-60643/home/13099521,MRED,10111046,N,Y,41.7245004,-87.6666859
MLS Listing,,Condo/Co-op,2335 W Belle Plaine Ave #218,CHICAGO,IL,60618,269000,2,2.0,North Center,1155,,2007,24,233,376,Active,,,http://www.redfin.com/IL/Chicago/2335-W-Belle-Plaine-Ave-60618/unit-218/home/39549996,MRED,10110855,N,Y,41.9554888,-87.6875226
MLS Listing,,Condo/Co-op,1516 S WABASH Ave #603,CHICAGO,IL,60605,267900,1,1.0,Near South Side,900,,1924,24,298,438,Active,,,http://www.redfin.com/IL/Chicago/1516-S-Wabash-Ave-60605/unit-603/home/12762972,MRED,10110743,N,Y,41.8616383,-87.6261832
MLS Listing,,Single Family Residential,6734 W Foster Ave,CHICAGO,IL,60656,269700,3,2.0,Norwood Park,1214,3341,1940,24,222,,Active,,,http://www.redfin.com/IL/Chicago/6734-W-Foster-Ave-60656/home/13505362,MRED,10110672,N,Y,41.9757504,-87.7965253
MLS Listing,,Condo/Co-op,910 N Lake shore Dr #616,CHICAGO,IL,60611,258000,1,1.0,Near North Side,841,,1955,24,307,528,Active,,,http://www.redfin.com/IL/Chicago/910-N-Lake-Shore-Dr-60611/unit-616/home/14120242,MRED,10110617,N,Y,41.8996853,-87.6196674
MLS Listing,,Multi-Family (2-4 Unit),4310 N Monitor Ave,CHICAGO,IL,60634,274900,6,3.0,Portage Park,,3484,1922,24,,,Active,,,http://www.redfin.com/IL/Chicago/4310-N-Monitor-Ave-60634/unit-1/home/13474184,MRED,10110562,N,Y,41.9589749,-87.7736237
MLS Listing,,Single Family Residential,3625 W 115th Pl,CHICAGO,IL,60655,254873,3,1.5,Mount Greenwood,1500,5079,1944,24,170,,Active,,,http://www.redfin.com/IL/Chicago/3625-W-115th-Pl-60655/home/13136512,MRED,10110454,N,Y,41.6829972,-87.7112386
MLS Listing,,Multi-Family (2-4 Unit),7922 S Throop St,CHICAGO,IL,60620,265000,6,2.0,Auburn Gresham,,3960,1913,24,,,Active,,,http://www.redfin.com/IL/Chicago/7922-S-Throop-St-60620/unit-2NDFL/home/13230214,MRED,10110399,N,Y,41.7497132,-87.6564695
MLS Listing,,Condo/Co-op,5225 N Winchester Ave Unit 2N,CHICAGO,IL,60640,259000,2,1.0,Lincoln Square,,3125,,24,,280,Active,,,http://www.redfin.com/IL/Chicago/5225-N-Winchester-Ave-60640/unit-2N/home/18943336,MRED,10110325,N,Y,41.976683,-87.6777296
MLS Listing,,Single Family Residential,10346 S Central Park Ave,CHICAGO,IL,60655,260000,2,2.0,Mount Greenwood,888,4970,1951,24,293,,Active,,,http://www.redfin.com/IL/Chicago/10346-S-Central-Park-Ave-60655/home/13155742,MRED,10110313,N,Y,41.7046685,-87.7113541
MLS Listing,,Condo/Co-op,336 W Wellington Ave #1405,CHICAGO,IL,60657,264000,2,2.0,Lake View,1200,,1964,24,220,989,Active,,,http://www.redfin.com/IL/Chicago/336-W-Wellington-Ave-60657/unit-1405/home/13370059,MRED,10110213,N,Y,41.9369033,-87.6384576
MLS Listing,,Single Family Residential,4135 W Marquette Rd,CHICAGO,IL,60629,274900,4,3.0,West Lawn,1696,3532,1949,24,162,,Active,,,http://www.redfin.com/IL/Chicago/4135-W-Marquette-Rd-60629/home/13992643,MRED,10110202,N,Y,41.7711255,-87.726362
MLS Listing,,Condo/Co-op,945 W Agatite Ave Unit G,CHICAGO,IL,60640,269000,3,2.0,Uptown,,,,24,,216,Active,,,http://www.redfin.com/IL/Chicago/945-W-Agatite-Ave-60640/unit-G/home/12743706,MRED,10110172,N,Y,41.9624525,-87.6542042
MLS Listing,,Single Family Residential,7322 S Constance Ave,CHICAGO,IL,60649,259000,4,2.0,South Shore,2700,4375,,25,96,,Active,,,http://www.redfin.com/IL/Chicago/7322-S-Constance-Ave-60649/home/13924960,MRED,10110001,N,Y,41.7617338,-87.5808657
MLS Listing,,Single Family Residential,11014 S Drake Ave,CHICAGO,IL,60655,264900,3,1.5,Mount Greenwood,5658,5658,1935,25,47,,Active,,,http://www.redfin.com/IL/Chicago/11014-S-Drake-Ave-60655/home/13151665,MRED,10109983,N,Y,41.6927713,-87.7096991
MLS Listing,,Condo/Co-op,260 E CHESTNUT St #810,CHICAGO,IL,60611,269000,1,1.0,Near North Side,850,,1965,25,316,642,Active,,,http://www.redfin.com/IL/Chicago/260-E-Chestnut-St-60611/unit-810/home/14117624,MRED,10109950,N,Y,41.8988262,-87.6196005
MLS Listing,,Single Family Residential,7864 S Kostner Ave,CHICAGO,IL,60652,269900,4,2.0,Ashburn,1077,5166,1957,25,251,,Active,,,http://www.redfin.com/IL/Chicago/7864-S-Kostner-Ave-60652/home/13980998,MRED,10109949,N,Y,41.7496307,-87.7319021
MLS Listing,,Condo/Co-op,4934 S Forrestville Ave #3,CHICAGO,IL,60615,250000,4,2.0,Grand Boulevard,1790,4000,1883,25,140,344,Active,,,http://www.redfin.com/IL/Chicago/4934-S-Forrestville-Ave-60615/unit-3/home/12566170,MRED,10109551,N,Y,41.8047517,-87.6129151
MLS Listing,,Condo/Co-op,3608 S Ellis Ave Unit 3N,CHICAGO,IL,60653,259900,3,2.0,Oakland,,,2007,25,,288,Active,,,http://www.redfin.com/IL/Chicago/3608-S-Ellis-Ave-60653/unit-3N/home/21817495,MRED,10109531,N,Y,41.828841,-87.6085559
MLS Listing,,Single Family Residential,718 W 17th St,CHICAGO,IL,60616,250000,1,,Lower West Side,2400,2400,,25,104,,Active,,,http://www.redfin.com/IL/Chicago/718-W-17th-St-60616/home/14084401,MRED,10108975,N,Y,41.8593129,-87.6456748
MLS Listing,,Condo/Co-op,2 E Oak St Unit U3710,CHICAGO,IL,60611,275000,1,1.0,Near North Side,750,,1968,26,367,725,Active,,,http://www.redfin.com/IL/Chicago/2-E-Oak-St-60611/unit-U3710/home/14121249,MRED,10108784,N,Y,41.9009321,-87.6280857
MLS Listing,,Condo/Co-op,480 N Mcclurg Ct #609,CHICAGO,IL,60611,262900,1,1.0,Near North Side,650,,1989,26,404,335,Active,,,http://www.redfin.com/IL/Chicago/480-N-McClurg-Ct-60611/unit-609/home/12625274,MRED,10108622,N,Y,41.8902845,-87.618133
MLS Listing,,Condo/Co-op,2937 N SHEFFIELD Ave #2,CHICAGO,IL,60657,264900,2,1.0,Lake View,,,,26,,300,Active,,,http://www.redfin.com/IL/Chicago/2937-N-Sheffield-Ave-60657/unit-2/home/22847678,MRED,10108519,N,Y,41.9355256,-87.6538018
MLS Listing,,Single Family Residential,5251 S Campbell Ave,CHICAGO,IL,60632,256000,3,2.0,Gage Park,1060,3123,1958,26,242,,Active,,,http://www.redfin.com/IL/Chicago/5251-S-Campbell-Ave-60632/home/14015974,MRED,10108196,N,Y,41.7977876,-87.6863299
MLS Listing,,Single Family Residential,4637 S Harding Ave,CHICAGO,IL,60632,256000,4,2.5,Archer Heights,1300,3781,1942,26,197,,Active,,,http://www.redfin.com/IL/Chicago/4637-S-Harding-Ave-60632/home/14034436,MRED,10108180,N,Y,41.8086333,-87.722091
MLS Listing,,Single Family Residential,2130 N Lorel Ave,CHICAGO,IL,60639,262500,4,2.0,Belmont Cragin,1200,3149,1954,26,219,,Active,,,http://www.redfin.com/IL/Chicago/2130-N-Lorel-Ave-60639/home/13427214,MRED,10107943,N,Y,41.9195171,-87.7599771
MLS Listing,,Condo/Co-op,900 S WABASH Ave #704,CHICAGO,IL,60605,265000,1,1.0,Loop,1150,,1909,26,230,449,Active,,,http://www.redfin.com/IL/Chicago/900-S-Wabash-Ave-60605/unit-704/home/14093895,MRED,10107835,N,Y,41.8703634,-87.6263874
MLS Listing,,Condo/Co-op,350 W Belden Ave #318,CHICAGO,IL,60614,266500,1,1.0,Lincoln Park,,,1991,26,,368,Active,,,http://www.redfin.com/IL/Chicago/350-W-Belden-Ave-60614/unit-318/home/12675446,MRED,10107757,N,Y,41.9241396,-87.6389931
MLS Listing,,Single Family Residential,4024 W 105th Pl,OAK LAWN,IL,60453,250000,4,2.0,Oak Lawn,1786,7579,1965,27,140,,Active,,,http://www.redfin.com/IL/Oak-Lawn/4024-105th-Pl-60453/home/13150752,MRED,10107581,N,Y,41.701563,-87.722088
MLS Listing,,Multi-Family (2-4 Unit),1743 N mozart St,Chicago,IL,60647,275000,4,2.0,West Town,,2500,1920,27,,,Active,,,http://www.redfin.com/IL/Chicago/1743-N-Mozart-St-60647/unit-1/home/13415806,MRED,10107387,N,Y,41.9136436,-87.6978812
MLS Listing,,Condo/Co-op,4711 N DOVER St Unit GS,CHICAGO,IL,60640,264999,2,2.0,Uptown,1200,,,27,221,167,Active,,,http://www.redfin.com/IL/Chicago/4711-N-Dover-St-60640/unit-GS/home/13394875,MRED,10107304,N,Y,41.9675519,-87.6654224
MLS Listing,,Condo/Co-op,2626 N Lakeview Ave #2707,CHICAGO,IL,60614,264999,1,1.0,Lincoln Park,,,1969,27,,653,Active,,,http://www.redfin.com/IL/Chicago/2626-N-Lakeview-Ave-60614/unit-2707/home/13367813,MRED,10107294,N,Y,41.9303286,-87.6398531
MLS Listing,,Condo/Co-op,520 S State St #1014,CHICAGO,IL,60605,274999,1,1.0,Loop,895,,2009,27,307,397,Active,,,http://www.redfin.com/IL/Chicago/520-S-State-St-60605/unit-1014/home/21820262,MRED,10107275,N,Y,41.8763294,-87.6280264
MLS Listing,,Single Family Residential,5214 N Oak Park Ave,CHICAGO,IL,60656,275000,4,1.0,Norwood Park,,4338,1923,27,,,Active,,,http://www.redfin.com/IL/Chicago/5214-N-Oak-Park-Ave-60656/home/13504617,MRED,10107173,N,Y,41.9761009,-87.7966406
MLS Listing,,Single Family Residential,2834 N Neva Ave,CHICAGO,IL,60634,269900,3,2.5,Montclare,1087,4125,1937,27,248,,Active,,,http://www.redfin.com/IL/Chicago/2834-N-Neva-Ave-60634/home/13434683,MRED,10107003,N,Y,41.9318221,-87.8055521
MLS Listing,,Condo/Co-op,1300 N Astor St Unit 7B,CHICAGO,IL,60610,260000,1,1.0,Near North Side,800,,1963,27,325,775,Active,,,http://www.redfin.com/IL/Chicago/1300-N-Astor-St-60610/unit-7B/home/12680804,MRED,10106963,N,Y,41.9059809,-87.6276809
MLS Listing,,Condo/Co-op,5100 N Marine Dr Unit 12A,CHICAGO,IL,60640,269000,2,2.0,Uptown,1200,,1970,27,224,644,Active,,,http://www.redfin.com/IL/Chicago/5100-N-Marine-Dr-60640/unit-12A/home/13399781,MRED,10106873,N,Y,41.9756291,-87.6522941
MLS Listing,,Condo/Co-op,3660 N Lake Shore Dr #1703,CHICAGO,IL,60613,259000,1,1.0,Lake View,,,1987,27,,510,Active,,,http://www.redfin.com/IL/Chicago/3660-N-Lake-Shore-Dr-60613/unit-1703/home/12742508,MRED,10106862,N,Y,41.9495523,-87.645905
MLS Listing,,Condo/Co-op,1030 N STATE St Unit 46D,CHICAGO,IL,60610,259888,0,1.0,Near North Side,,,1970,27,,289,Active,,,http://www.redfin.com/IL/Chicago/1030-N-State-St-60610/unit-46D/home/14111061,MRED,10106733,N,Y,41.9012852,-87.6289091
MLS Listing,,Condo/Co-op,3900 N Lake Shore Dr Unit 19K,CHICAGO,IL,60613,259900,2,2.0,Lake View,1125,,1958,27,231,1136,Active,,,http://www.redfin.com/IL/Chicago/3900-N-Lake-Shore-Dr-60613/unit-19K/home/13379583,MRED,10106695,N,Y,41.9532673,-87.6452796
MLS Listing,,Single Family Residential,2714 N Moody Ave,Chicago,IL,60639,265000,5,2.0,Belmont Cragin,1416,4133,1992,27,187,,Active,,,http://www.redfin.com/IL/Chicago/2714-N-Moody-Ave-60639/home/13437230,MRED,10106603,N,Y,41.9297556,-87.7798262
MLS Listing,,Multi-Family (2-4 Unit),207 N Kolin Ave,CHICAGO,IL,60624,259900,6,2.5,West Garfield Park,,3920,1889,28,,,Active,,,http://www.redfin.com/IL/Chicago/207-N-Kolin-Ave-60624/home/13262332,MRED,10105990,N,Y,41.8837041,-87.7340564
MLS Listing,,Condo/Co-op,30 E Huron St #1003,CHICAGO,IL,60611,264000,1,1.0,Near North Side,,,1982,28,,363,Active,,,http://www.redfin.com/IL/Chicago/30-E-Huron-St-60611/unit-1003/home/12658203,MRED,10105843,N,Y,41.8953761,-87.6263728
MLS Listing,,Condo/Co-op,3660 N Lake Shore Dr #3408,CHICAGO,IL,60613,259900,1,1.0,Lake View,,,1987,28,,407,Active,,,http://www.redfin.com/IL/Chicago/3660-N-Lake-Shore-Dr-60613/unit-3408/home/12758200,MRED,10105786,N,Y,41.9495523,-87.645905
MLS Listing,,Single Family Residential,5411 W Schubert Ave,CHICAGO,IL,60639,259900,5,2.0,Belmont Cragin,1900,3123,1971,28,137,,Active,,,http://www.redfin.com/IL/Chicago/5411-W-Schubert-Ave-60639/home/13442041,MRED,10105757,N,Y,41.9292765,-87.7618225
MLS Listing,,Multi-Family (2-4 Unit),1633 N Mcvicker Ave,Chicago,IL,60639,265000,4,2.0,Austin,,3484,1918,29,,,Active,,,http://www.redfin.com/IL/Chicago/1633-N-McVicker-Ave-60639/unit-2/home/13427560,MRED,10105354,N,Y,41.910329,-87.7761147
MLS Listing,,Single Family Residential,3843 W 109th St,CHICAGO,IL,60655,265000,3,3.0,Mount Greenwood,1517,3659,1949,30,175,,Active,,,http://www.redfin.com/IL/Chicago/3843-W-109th-St-60655/home/13155061,MRED,10105173,N,Y,41.6946723,-87.7172809
MLS Listing,,Condo/Co-op,6818 N Ashland Blvd Unit 3A,CHICAGO,IL,60626,269900,3,2.0,Rogers Park,,,,30,,300,Active,,,http://www.redfin.com/IL/Chicago/6818-N-Ashland-Blvd-60626/unit-3A/home/146178391,MRED,10105141,N,Y,42.0059959,-87.6702232
MLS Listing,,Single Family Residential,1019 N MONITOR Ave,CHICAGO,IL,60651,259000,5,2.0,Austin,,4647,1893,30,,,Active,,,http://www.redfin.com/IL/Chicago/1019-N-Monitor-Ave-60651/home/13275908,MRED,10105036,N,Y,41.899084,-87.7713559
MLS Listing,,Condo/Co-op,1728 W Foster Ave #3,CHICAGO,IL,60640,259900,2,1.0,Edgewater,1250,,,30,208,348,Active,,,http://www.redfin.com/IL/Chicago/1728-W-Foster-Ave-60640/unit-3/home/12726335,MRED,10104995,N,Y,41.9763766,-87.6732993
MLS Listing,,Condo/Co-op,2351 N CLEVELAND Ave Unit 2N,CHICAGO,IL,60614,260000,1,1.0,Lincoln Park,,,1909,30,,345,Active,,,http://www.redfin.com/IL/Chicago/2351-N-Cleveland-Ave-60614/unit-2N/home/13351017,MRED,10104917,N,Y,41.925296,-87.641223
MLS Listing,,Single Family Residential,2151 N MASON Ave,CHICAGO,IL,60639,250000,3,2.0,Belmont Cragin,1000,3123,1961,31,250,,Active,,,http://www.redfin.com/IL/Chicago/2151-N-Mason-Ave-60639/home/13428047,MRED,10104514,N,Y,41.9194224,-87.774077
MLS Listing,,Multi-Family (2-4 Unit),7446 S Rhodes Ave,CHICAGO,IL,60619,259999,4,2.0,Greater Grand Crossing,,3920,1911,31,,,Active,,,http://www.redfin.com/IL/Chicago/7446-S-Rhodes-Ave-60619/home/13919199,MRED,10103780,N,Y,41.7589006,-87.6117533
MLS Listing,,Single Family Residential,5910 W Ohio St,CHICAGO,IL,60644,255000,5,1.5,Austin,1672,3301,1903,31,153,,Active,,,http://www.redfin.com/IL/Chicago/5910-W-Ohio-St-60644/home/13267086,MRED,10103660,N,Y,41.8912439,-87.7728165
MLS Listing,,Multi-Family (2-4 Unit),4125 W School St,CHICAGO,IL,60641,269900,6,3.0,Irving Park,,4356,1901,32,,,Active,,,http://www.redfin.com/IL/Chicago/4125-W-School-St-60641/unit-1/home/13456664,MRED,10103562,N,Y,41.9406045,-87.7306996
MLS Listing,,Multi-Family (2-4 Unit),4815 W Quincy St,CHICAGO,IL,60644,255000,7,3.0,Austin,,3049,1907,32,,,Active,,,http://www.redfin.com/IL/Chicago/4815-W-Quincy-St-60644/home/13253313,MRED,10103443,N,Y,41.8774619,-87.7459033
MLS Listing,,Single Family Residential,9139 S Bell Ave,CHICAGO,IL,60643,259900,3,1.5,Beverly,1560,,1935,32,167,,Active,,,http://www.redfin.com/IL/Chicago/9139-S-Bell-Ave-60643/home/13101919,MRED,10061051,N,Y,41.727107,-87.6783192
MLS Listing,,Condo/Co-op,900 N LAKE SHORE Dr #1005,CHICAGO,IL,60611,262000,0,1.0,Near North Side,645,,1955,32,406,332,Active,,,http://www.redfin.com/IL/Chicago/900-N-Lake-Shore-Dr-60611/unit-1005/home/14119607,MRED,10102470,N,Y,41.8996853,-87.6196674
MLS Listing,,Single Family Residential,4117 N Ozanam Ave,NORRIDGE,IL,60706,255000,3,1.0,Norridge,1149,3781,1922,33,222,,Active,,,http://www.redfin.com/IL/Norridge/4117-N-Ozanam-Ave-60706/home/13552819,MRED,10102219,N,Y,41.954784,-87.8217191
MLS Listing,,Single Family Residential,5656 S Kenneth Ave,CHICAGO,IL,60629,269900,3,2.5,West Elsdon,1584,,1947,33,170,,Active,,,http://www.redfin.com/IL/Chicago/5656-S-Kenneth-Ave-60629/home/14008582,MRED,10102211,N,Y,41.7896552,-87.7343642
MLS Listing,,Single Family Residential,3331 N Pioneer Ave,CHICAGO,IL,60634,250000,3,1.0,Dunning,1400,3750,1945,33,179,,Active,,,http://www.redfin.com/IL/Chicago/3331-N-Pioneer-Ave-60634/home/13544518,MRED,10101040,N,Y,41.9402852,-87.8311247
MLS Listing,,Condo/Co-op,5855 N SHERIDAN Rd Unit 22D,CHICAGO,IL,60660,266900,2,2.0,Edgewater,1600,,1966,33,167,758,Active,,,http://www.redfin.com/IL/Chicago/5855-N-Sheridan-Rd-60660/unit-22D/home/13410945,MRED,10101943,N,Y,41.9887569,-87.6546834
MLS Listing,,Single Family Residential,2821 W 84th Pl,CHICAGO,IL,60652,259900,5,3.0,Ashburn,2540,4800,1952,33,102,,Active,,,http://www.redfin.com/IL/Chicago/2821-W-84th-Pl-60652/home/13963772,MRED,10101709,N,Y,41.7400419,-87.6932995
MLS Listing,,Single Family Residential,7507 W ADDISON St,CHICAGO,IL,60634,259900,3,3.0,Dunning,,3750,,33,,,Active,,,http://www.redfin.com/IL/Chicago/7507-W-Addison-St-60634/home/13541440,MRED,10101690,N,Y,41.9449332,-87.8147691
MLS Listing,,Condo/Co-op,1500 W Monroe St #716,CHICAGO,IL,60607,269900,1,1.0,Near West Side,710,,2002,33,380,330,Active,,,http://www.redfin.com/IL/Chicago/1500-W-Monroe-St-60607/unit-716/home/12631044,MRED,10101424,N,Y,41.8807676,-87.664874
MLS Listing,,Condo/Co-op,1250 S Michigan Ave #2104,CHICAGO,IL,60605,257500,1,1.0,Near South Side,,,2004,33,,640,Active,,,http://www.redfin.com/IL/Chicago/1250-S-Michigan-Ave-60605/unit-2104/home/12594605,MRED,10101257,N,Y,41.8660667,-87.6245229
MLS Listing,,Condo/Co-op,1211 N LaSalle St #603,CHICAGO,IL,60610,260000,2,2.0,Near North Side,,,,33,,432,Active,,,http://www.redfin.com/IL/Chicago/1211-N-LaSalle-Dr-60610/unit-603/home/144967135,MRED,10101217,N,Y,41.904492,-87.632695
MLS Listing,,Condo/Co-op,680 S Federal St #702,CHICAGO,IL,60605,270000,2,2.0,Loop,1192,,1913,33,227,602,Active,,,http://www.redfin.com/IL/Chicago/680-S-Federal-St-60605/unit-702/home/18942328,MRED,10101160,N,Y,41.8730553,-87.6298852
MLS Listing,,Condo/Co-op,5215 S DREXEL Ave Unit 1S,CHICAGO,IL,60615,269000,3,3.0,Hyde Park,2500,,1913,34,108,450,Active,,,http://www.redfin.com/IL/Chicago/5215-S-Drexel-Ave-60615/unit-1S/home/12592023,MRED,10100596,N,Y,41.8003878,-87.6035862
MLS Listing,,Condo/Co-op,3150 N Sheridan Rd Unit 17D,CHICAGO,IL,60657,259950,1,1.0,Lake View,1100,,1974,35,236,583,Active,,,http://www.redfin.com/IL/Chicago/3150-N-Sheridan-Rd-60657/unit-17D/home/13372396,MRED,10099865,N,Y,41.9392324,-87.639705
MLS Listing,,Condo/Co-op,4500 N Sacramento Ave #2,CHICAGO,IL,60625,255000,2,1.0,Albany Park,1100,,1925,35,232,278,Active,November-11-2018 12:00 PM,November-11-2018 04:00 PM,http://www.redfin.com/IL/Chicago/4500-N-Sacramento-Ave-60625/unit-2/home/12775873,MRED,10099340,N,Y,41.9631955,-87.7037525
MLS Listing,,Vacant Land,4203 S KILPATRICK Ave,CHICAGO,IL,60632,275000,,,Garfield Ridge,,31350,,35,,,Active,,,http://www.redfin.com/IL/Chicago/4203-S-Kilpatrick-Ave-60632/home/147364982,MRED,10099253,N,Y,41.8166269,-87.740673
MLS Listing,,Condo/Co-op,222 N Columbus Dr #3704,CHICAGO,IL,60601,260000,1,1.0,Loop,710,,2002,35,366,482,Active,,,http://www.redfin.com/IL/Chicago/222-N-Columbus-Dr-60601/unit-3704/home/28529741,MRED,10099115,N,Y,41.8865605,-87.6215903
MLS Listing,,Multi-Family (2-4 Unit),3318 W 61st St,CHICAGO,IL,60629,259000,4,2.0,Chicago Lawn,,3125,1922,35,,,Active,,,http://www.redfin.com/IL/Chicago/3318-W-61st-St-60629/home/14007556,MRED,10099099,N,Y,41.7827737,-87.7065043
MLS Listing,,Condo/Co-op,1474 W Carmen Ave #3,CHICAGO,IL,60640,275000,2,1.0,Uptown,,,,35,,264,Active,,,http://www.redfin.com/IL/Chicago/1474-W-Carmen-Ave-60640/unit-3/home/12613320,MRED,10099021,N,Y,41.9745231,-87.667866
MLS Listing,,Condo/Co-op,828 W Grace St #1305,CHICAGO,IL,60613,275000,1,1.0,Lake View,,,2007,35,,315,Active,,,http://www.redfin.com/IL/Chicago/828-W-Grace-St-60613/unit-1305/home/26793642,MRED,10098907,N,Y,41.9515578,-87.6509773
MLS Listing,,Multi-Family (5+ Unit),1245 S Lawndale Ave,CHICAGO,IL,60623,259000,12,6.0,North Lawndale,,2613,1900,35,,,Active,,,http://www.redfin.com/IL/Chicago/1245-S-Lawndale-Ave-60623/home/13235982,MRED,10098828,N,Y,41.8648798,-87.7173963
MLS Listing,,Single Family Residential,11436 S Campbell Ave,CHICAGO,IL,60655,259900,3,2.0,Morgan Park,1500,4064,1948,36,173,,Active,,,http://www.redfin.com/IL/Chicago/11436-S-Campbell-Ave-60655/home/13133332,MRED,10098556,N,Y,41.6852108,-87.6837497
MLS Listing,,Condo/Co-op,749 W WELLINGTON Ave #1,CHICAGO,IL,60657,265000,2,1.0,Lake View,,,,37,,412,Active,,,http://www.redfin.com/IL/Chicago/749-W-Wellington-Ave-60657/unit-1/home/13373039,MRED,10097928,N,Y,41.9362012,-87.6484043
MLS Listing,,Condo/Co-op,2222 W DIVERSEY Ave #310,CHICAGO,IL,60647,269900,1,2.0,Logan Square,,,1998,38,,349,Active,,,http://www.redfin.com/IL/Chicago/2222-W-Diversey-Ave-60647/unit-310/home/12805606,MRED,10097512,N,Y,41.9327315,-87.6837965
MLS Listing,,Condo/Co-op,221 E Cullerton St #412,CHICAGO,IL,60616,250000,1,1.0,Near South Side,,,,38,,326,Active,,,http://www.redfin.com/IL/Chicago/221-E-Cullerton-St-60616/unit-412/home/12706401,MRED,10097451,N,Y,41.8552372,-87.6211717
MLS Listing,,Single Family Residential,5155 S Kenneth Ave,CHICAGO,IL,60632,254500,4,2.0,Archer Heights,1700,3781,1949,38,150,,Active,,,http://www.redfin.com/IL/Chicago/5155-S-Kenneth-Ave-60632/home/14021501,MRED,10097415,N,Y,41.7988143,-87.7340949
MLS Listing,,Single Family Residential,7151 W Addison St,CHICAGO,IL,60634,275000,4,3.0,Dunning,1271,3123,1958,38,216,,Active,,,http://www.redfin.com/IL/Chicago/7151-W-Addison-St-60634/home/13469099,MRED,10097247,N,Y,41.9451013,-87.8052833
MLS Listing,,Multi-Family (2-4 Unit),9042 S Justine St,CHICAGO,IL,60620,254900,6,2.0,Washington Heights,,3125,1926,38,,,Active,,,http://www.redfin.com/IL/Chicago/9042-S-Justine-St-60620/home/13104615,MRED,10097167,N,Y,41.7290295,-87.6618699
MLS Listing,,Condo/Co-op,1217 W Lawrence Ave #3,CHICAGO,IL,60640,264900,2,1.0,Uptown,1150,,,39,230,347,Active,,,http://www.redfin.com/IL/Chicago/1217-W-Lawrence-Ave-60640/unit-3/home/12684909,MRED,10096626,N,Y,41.9687913,-87.6608053
MLS Listing,,Single Family Residential,6615 N OLMSTED Ave,CHICAGO,IL,60631,262000,3,1.5,Edison Park,,4800,1921,39,,,Active,,,http://www.redfin.com/IL/Chicago/6615-N-Olmsted-Ave-60631/home/13635133,MRED,10096083,N,Y,42.000576,-87.8139627
MLS Listing,,Condo/Co-op,401 N WABASH Ave #2116,CHICAGO,IL,60611,270000,0,1.0,Near North Side,604,,2008,39,447,2195,Active,,,http://www.redfin.com/IL/Chicago/401-N-Wabash-Ave-60611/unit-2116/home/147296129,MRED,10095979,N,Y,41.8888031,-87.626312
MLS Listing,,Townhouse,7619 N Eastlake Ter Unit A,CHICAGO,IL,60626,275000,3,1.5,Rogers Park,1315,,1954,39,209,60,Active,,,http://www.redfin.com/IL/Chicago/7619-N-Eastlake-Ter-60626/unit-A/home/13575367,MRED,10095856,N,Y,42.0198268,-87.664158
MLS Listing,,Condo/Co-op,1122 W Newport Ave Unit 2B,CHICAGO,IL,60657,269000,1,1.0,Lake View,,,1920,39,,173,Active,,,http://www.redfin.com/IL/Chicago/1122-W-Newport-Ave-60657/unit-2B/home/22827613,MRED,10095553,N,Y,41.9446164,-87.6577662
MLS Listing,,Condo/Co-op,5360 N Lowell Ave #213,CHICAGO,IL,60630,266000,2,2.0,North Park,1382,,1997,39,192,403,Active,,,http://www.redfin.com/IL/Chicago/5360-N-Lowell-Ave-60630/unit-213/home/12796337,MRED,10095471,N,Y,41.9789805,-87.7374404
MLS Listing,,Condo/Co-op,10 E ONTARIO St #3710,CHICAGO,IL,60611,259000,1,1.0,Near North Side,,,1983,40,,535,Active,,,http://www.redfin.com/IL/Chicago/10-E-Ontario-St-60611/unit-3710/home/12620554,MRED,10094455,N,Y,41.8936405,-87.6275331
MLS Listing,,Single Family Residential,6006 S Mayfield Ave,CHICAGO,IL,60638,254900,7,3.0,Clearing,1680,3750,1943,40,152,,Active,,,http://www.redfin.com/IL/Chicago/6006-S-Mayfield-Ave-60638/home/14000986,MRED,10094421,N,Y,41.7830883,-87.7695397
MLS Listing,,Multi-Family (2-4 Unit),1114 S St Louis Ave,CHICAGO,IL,60624,269000,10,4.0,North Lawndale,,3000,1921,40,,,Active,,,http://www.redfin.com/IL/Chicago/1114-S-St-Louis-Ave-60624/home/13256294,MRED,10094390,N,Y,41.867613,-87.713347
MLS Listing,,Single Family Residential,4905 S Lorel Ave,CHICAGO,IL,60638,259900,5,2.0,Garfield Ridge,2100,3781,1966,40,124,,Active,,,http://www.redfin.com/IL/Chicago/4905-S-Lorel-Ave-60638/home/14026315,MRED,10094338,N,Y,41.803506,-87.75614
MLS Listing,,Condo/Co-op,845 N Kingsbury St #511,CHICAGO,IL,60610,275000,1,1.0,Near North Side,909,,2007,41,303,591,Active,,,http://www.redfin.com/IL/Chicago/845-N-Kingsbury-St-60610/unit-511/home/145797430,MRED,10093934,N,Y,41.8985237,-87.6433388
MLS Listing,,Single Family Residential,2176 W 118th St,CHICAGO,IL,60643,250000,3,2.0,Morgan Park,1639,3998,1944,41,153,,Active,,,http://www.redfin.com/IL/Chicago/2176-W-118th-St-60643/home/13069080,MRED,10047997,N,Y,41.6794114,-87.6759312
MLS Listing,,Condo/Co-op,2510 W Irving Park Rd #206,CHICAGO,IL,60618,274888,1,1.0,North Center,,,2006,42,,258,Active,,,http://www.redfin.com/IL/Chicago/2510-W-Irving-Park-Rd-60618/unit-206/home/18946004,MRED,10093040,N,Y,41.9543575,-87.6914757
MLS Listing,,Condo/Co-op,400 E Randolph St #2616,CHICAGO,IL,60601,258000,1,1.0,Loop,650,,1963,42,397,457,Active,,,http://www.redfin.com/IL/Chicago/Undisclosed-address-60601/home/14094516,MRED,10092774,N,Y,41.8848489,-87.6168112
MLS Listing,,Single Family Residential,5528 N OKETO Ave,CHICAGO,IL,60656,254900,3,1.0,Norwood Park,975,4299,1950,42,261,,Active,,,http://www.redfin.com/IL/Chicago/5528-N-Oketo-Ave-60656/home/13557162,MRED,10092705,N,Y,41.9800704,-87.8120042
MLS Listing,,Condo/Co-op,8667 1/2 W Foster Ave Unit 1B,CHICAGO,IL,60656,260000,3,3.0,O'Hare,1750,,1976,42,149,313,Active,,,http://www.redfin.com/IL/Chicago/8667-1-2-W-Foster-Ave-60656/unit-1B/home/146227543,MRED,10092437,N,Y,41.973628,-87.8450397
MLS Listing,,Condo/Co-op,1150 N Lake Shore Dr Unit 24K,CHICAGO,IL,60611,259900,1,1.0,Near North Side,910,,,42,286,752,Active,,,http://www.redfin.com/IL/Chicago/1150-N-Lake-Shore-Dr-60611/unit-24K/home/14122986,MRED,10092347,N,Y,41.9037674,-87.6253709
MLS Listing,,Condo/Co-op,141 Asbury Ave Unit 1N,EVANSTON,IL,60202,265000,3,2.0,Evanston,,,1998,42,,316,Active,,,http://www.redfin.com/IL/Evanston/141-Asbury-Ave-60202/unit-1N/home/12796668,MRED,10092307,N,Y,42.0210297,-87.6898148
MLS Listing,,Single Family Residential,2334 N Keystone Ave,CHICAGO,IL,60639,255000,5,3.5,Hermosa,1570,3781,1908,42,162,,Active,,,http://www.redfin.com/IL/Chicago/2334-N-Keystone-Ave-60639/home/13423689,MRED,10092031,N,Y,41.9237376,-87.7282088
MLS Listing,,Condo/Co-op,1255 S State St #1409,CHICAGO,IL,60605,254900,1,1.0,Near South Side,725,,2007,43,352,464,Active,,,http://www.redfin.com/IL/Chicago/Undisclosed-address-60605/home/26820013,MRED,10091833,N,Y,41.8661848,-87.6269452
MLS Listing,,Condo/Co-op,3006 N Central Ave Unit 1B,Chicago,IL,60634,265000,3,2.0,Belmont Cragin,1500,12200,2017,43,177,200,Active,,,http://www.redfin.com/IL/Chicago/3006-N-Central-Ave-60634/unit-1B/home/129205952,MRED,10091776,N,Y,41.9351463,-87.7663679
MLS Listing,,Single Family Residential,8053 S Kolmar Ave,CHICAGO,IL,60652,254999,5,2.0,Ashburn,2100,4303,1953,43,121,,Active,,,http://www.redfin.com/IL/Chicago/8053-S-Kolmar-Ave-60652/home/13970985,MRED,10091715,N,Y,41.7458382,-87.7347104
MLS Listing,,Single Family Residential,4734 S Lotus Ave,CHICAGO,IL,60638,259900,4,1.5,Garfield Ridge,1476,3149,2000,44,176,,Active,,,http://www.redfin.com/IL/Chicago/4734-S-Lotus-Ave-60638/home/14026431,MRED,10091597,N,Y,41.8064903,-87.7593235
MLS Listing,,Condo/Co-op,1402 W Flournoy St #3,CHICAGO,IL,60607,250000,2,1.0,Near West Side,,,1910,44,,110,Active,,,http://www.redfin.com/IL/Chicago/1402-W-Flournoy-St-60607/unit-3/home/26818465,MRED,10091298,N,Y,41.8735662,-87.6620291
MLS Listing,,Condo/Co-op,2007 W WARNER Ave #2,CHICAGO,IL,60618,259900,2,1.0,North Center,,,,44,,248,Active,,,http://www.redfin.com/IL/Chicago/2007-W-Warner-Ave-60618/unit-2/home/12628126,MRED,10091249,N,Y,41.9567289,-87.679172
MLS Listing,,Single Family Residential,5822 W Newport Ave,CHICAGO,IL,60634,269900,4,3.0,Portage Park,1330,3781,1923,45,203,,Active,,,http://www.redfin.com/IL/Chicago/5822-W-Newport-Ave-60634/home/13464329,MRED,10091035,N,Y,41.9432323,-87.7724706
MLS Listing,,Single Family Residential,10857 S Drake Ave,CHICAGO,IL,60655,267900,3,2.0,Mount Greenwood,1530,3876,1941,45,175,,Active,,,http://www.redfin.com/IL/Chicago/10857-S-Drake-Ave-60655/home/13152220,MRED,10090784,N,Y,41.6952233,-87.709266
MLS Listing,,Single Family Residential,2929 N Fairfield Ave,CHICAGO,IL,60618,269900,4,2.0,Avondale,1797,3001,1892,45,150,,Active,,,http://www.redfin.com/IL/Chicago/2929-N-Fairfield-Ave-60618/home/13452291,MRED,10090587,N,Y,41.9348097,-87.6962161
MLS Listing,,Condo/Co-op,925 N Mozart St Unit 2R,CHICAGO,IL,60622,259900,2,1.0,West Town,800,,,45,325,189,Active,,,http://www.redfin.com/IL/Chicago/925-N-Mozart-St-60622/unit-2R/home/26810616,MRED,10090398,N,Y,41.8988787,-87.6978427
MLS Listing,,Condo/Co-op,6221 N Hermitage Ave #3,CHICAGO,IL,60660,259900,3,2.0,Edgewater,1600,,1979,45,162,189,Active,,,http://www.redfin.com/IL/Chicago/6221-N-Hermitage-Ave-60660/unit-3/home/13407294,MRED,10090289,N,Y,41.9950586,-87.6730518
MLS Listing,,Single Family Residential,5230 S Narragansett Ave,CHICAGO,IL,60638,259900,4,2.0,Garfield Ridge,1742,4626,1953,45,149,,Active,,,http://www.redfin.com/IL/Chicago/5230-S-Narragansett-Ave-60638/home/14027925,MRED,10090287,N,Y,41.7968765,-87.7821939
MLS Listing,,Single Family Residential,3254 W 85th St,CHICAGO,IL,60652,262000,4,3.0,Ashburn,2300,4373,1952,46,114,,Active,,,http://www.redfin.com/IL/Chicago/3254-W-85th-St-60652/home/13964284,MRED,10089939,N,Y,41.7390163,-87.7042332
MLS Listing,,Condo/Co-op,247 E Chestnut St #1903,CHICAGO,IL,60611,259888,2,1.5,Near North Side,,,1965,46,,1038,Active,,,http://www.redfin.com/IL/Chicago/247-E-Chestnut-St-60611/unit-1903/home/14117679,MRED,10089670,N,Y,41.8982108,-87.6199627
MLS Listing,,Single Family Residential,7943 S Indiana Ave,CHICAGO,IL,60619,259000,4,3.0,Chatham,2402,6111,1920,46,108,,Active,,,http://www.redfin.com/IL/Chicago/7943-S-Indiana-Ave-60619/home/13225797,MRED,10089603,N,Y,41.7497714,-87.61939
MLS Listing,,Condo/Co-op,2036 N HUMBOLDT Blvd Unit 3E,CHICAGO,IL,60647,254500,2,1.0,Logan Square,,,,46,,206,Active,,,http://www.redfin.com/IL/Chicago/2036-N-Humboldt-Blvd-60647/unit-3E/home/12776686,MRED,10089374,N,Y,41.918553,-87.7028799
MLS Listing,,Condo/Co-op,1850 N Clark St #2201,CHICAGO,IL,60614,275000,1,1.0,Lincoln Park,1000,,1969,46,275,670,Active,,,http://www.redfin.com/IL/Chicago/1850-N-Clark-St-60614/unit-2201/home/13344899,MRED,10089173,N,Y,41.9161898,-87.63518
MLS Listing,,Condo/Co-op,1530 S State St #519,CHICAGO,IL,60605,250000,1,1.0,Near South Side,1100,,2001,46,227,475,Active,,,http://www.redfin.com/IL/Chicago/1530-S-State-St-60605/unit-519/home/12680071,MRED,10089120,N,Y,41.8610256,-87.6279104
MLS Listing,,Single Family Residential,5626 N Mulligan Ave,CHICAGO,IL,60646,275000,4,2.0,Norwood Park,1200,3720,1920,47,229,,Active,,,http://www.redfin.com/IL/Chicago/5626-N-Mulligan-Ave-60646/home/13510413,MRED,10088377,N,Y,41.9836902,-87.7867666
MLS Listing,,Condo/Co-op,437 W Division St #404,Chicago,IL,60610,265000,1,1.0,Near North Side,853,853,2008,47,311,430,Active,,,http://www.redfin.com/IL/Chicago/437-W-Division-St-60610/unit-404/home/21847619,MRED,10088150,N,Y,41.9035939,-87.6396912
MLS Listing,,Condo/Co-op,758 N Larrabee St #826,CHICAGO,IL,60654,275000,1,1.0,Near North Side,,,,47,,385,Active,,,http://www.redfin.com/IL/Chicago/758-N-Larrabee-St-60654/unit-826/home/12707405,MRED,10087829,N,Y,41.8958892,-87.6434851
MLS Listing,,Multi-Family (2-4 Unit),2833 S Kenneth Ave,CHICAGO,IL,60623,275000,4,3.0,South Lawndale,,3484,1925,47,,,Active,,,http://www.redfin.com/IL/Chicago/2833-S-Kenneth-Ave-60623/home/14146549,MRED,10087691,N,Y,41.8394328,-87.7350566
MLS Listing,,Condo/Co-op,7345 N Damen Ave Unit 2S,CHICAGO,IL,60645,259000,3,2.0,Rogers Park,1900,,1920,47,136,275,Active,,,http://www.redfin.com/IL/Chicago/7345-N-Damen-Ave-60645/unit-2S/home/12613729,MRED,10087593,N,Y,42.015288,-87.6801093
MLS Listing,,Multi-Family (2-4 Unit),6605 S Keating Ave,CHICAGO,IL,60629,274900,6,3.0,Clearing,,3484,1920,47,,,Active,,,http://www.redfin.com/IL/Chicago/6605-S-Keating-Ave-60629/home/145299776,MRED,10079137,N,Y,41.7727659,-87.7406256
MLS Listing,,Condo/Co-op,6033 N Sheridan Rd Unit 25E,CHICAGO,IL,60660,270000,2,2.0,Edgewater,1483,,1972,48,182,708,Active,,,http://www.redfin.com/IL/Chicago/6033-N-Sheridan-Rd-60660/unit-25E/home/13410849,MRED,10087150,N,Y,41.9917384,-87.654799
MLS Listing,,Condo/Co-op,525 W Aldine Ave #103,CHICAGO,IL,60657,274900,2,1.0,Lake View,,,,48,,407,Active,,,http://www.redfin.com/IL/Chicago/525-W-Aldine-Ave-60657/unit-103/home/12793538,MRED,10087011,N,Y,41.9419296,-87.6428853
MLS Listing,,Condo/Co-op,247 E CHESTNUT St #903,CHICAGO,IL,60611,269000,2,1.5,Near North Side,1200,,1965,48,224,1361,Active,,,http://www.redfin.com/IL/Chicago/247-E-Chestnut-St-60611/unit-903/home/14117781,MRED,10086798,N,Y,41.8982108,-87.6199627
MLS Listing,,Condo/Co-op,7241 N RIDGE Blvd #301,CHICAGO,IL,60645,265000,3,2.0,Rogers Park,1300,,1971,48,204,370,Active,,,http://www.redfin.com/IL/Chicago/7241-N-Ridge-Blvd-60645/unit-301/home/13572893,MRED,10086367,N,Y,42.0134452,-87.683033
MLS Listing,,Single Family Residential,7110 W 63rd Pl,CHICAGO,IL,60638,268900,5,2.0,Clearing,1150,3632,1965,49,234,,Active,,,http://www.redfin.com/IL/Chicago/7110-W-63rd-Pl-60638/home/13996402,MRED,10085852,N,Y,41.776691,-87.7989454
MLS Listing,,Condo/Co-op,33 W Delaware Pl Unit 10D,CHICAGO,IL,60610,265000,1,1.0,Near North Side,850,,1988,49,312,572,Active,,,http://www.redfin.com/IL/Chicago/33-W-Delaware-Pl-60610/unit-10D/home/12670295,MRED,10085809,N,Y,41.8989122,-87.6293751
MLS Listing,,Single Family Residential,4836 S Michigan Ave,Chicago,IL,60615,259000,5,3.0,Grand Boulevard,4000,4024,1920,49,65,,Active,,,http://www.redfin.com/IL/Chicago/4836-S-Michigan-Ave-60615/home/13952562,MRED,10085716,N,Y,41.8064248,-87.6231684
MLS Listing,,Single Family Residential,3644 W 68th St,CHICAGO,IL,60629,269900,5,3.0,West Lawn,1142,3750,1950,49,236,,Active,,,http://www.redfin.com/IL/Chicago/3644-W-68th-St-60629/home/13990653,MRED,10085485,N,Y,41.7698818,-87.7145485
MLS Listing,,Condo/Co-op,832 W Oakdale Ave Unit 3H,CHICAGO,IL,60657,259900,1,1.0,Lake View,700,,1974,49,371,350,Active,,,http://www.redfin.com/IL/Chicago/832-W-Oakdale-Ave-60657/unit-3H/home/13362604,MRED,10085395,N,Y,41.9356393,-87.6505213
MLS Listing,,Single Family Residential,3721 N Ottawa Ave,CHICAGO,IL,60634,259900,4,2.0,Dunning,,4769,1927,49,,,Active,,,http://www.redfin.com/IL/Chicago/3721-N-Ottawa-Ave-60634/home/13543892,MRED,10085350,N,Y,41.9472754,-87.8178027
MLS Listing,,Single Family Residential,5806 S Natchez Ave,CHICAGO,IL,60638,269900,3,2.0,Garfield Ridge,3780,3781,1956,49,71,,Active,,,http://www.redfin.com/IL/Chicago/5806-S-Natchez-Ave-60638/home/13997976,MRED,10085348,N,Y,41.786508,-87.7842306
MLS Listing,,Condo/Co-op,4637 N Central Park Ave Unit 2S,CHICAGO,IL,60625,250000,2,1.0,Albany Park,1280,,,49,195,390,Active,,,http://www.redfin.com/IL/Chicago/4637-N-Central-Park-Ave-60625/unit-2S/home/18951431,MRED,10085266,N,Y,41.965862,-87.717832
MLS Listing,,Vacant Land,11437 S Watkins Ave,CHICAGO,IL,60643,250000,,,Morgan Park,,3484,,49,,,Active,,,http://www.redfin.com/IL/Chicago/11437-S-Watkins-Ave-60643/home/147843785,MRED,10085166,N,Y,41.6851943,-87.6655686
MLS Listing,,Condo/Co-op,1560 N Sandburg Ter #1701,Chicago,IL,60610,275000,1,1.0,Near North Side,900,,1972,49,306,772,Active,,,http://www.redfin.com/IL/Chicago/1560-N-Sandburg-Ter-60610/unit-1701/home/40378507,MRED,10085138,N,Y,41.9105614,-87.6327897
MLS Listing,,Single Family Residential,11414 S Washtenaw Ave,CHICAGO,IL,60655,250000,2,2.0,Morgan Park,1140,4190,1942,49,219,,Active,,,http://www.redfin.com/IL/Chicago/11414-S-Washtenaw-Ave-60655/home/13134253,MRED,10084971,N,Y,41.6857652,-87.6885922
MLS Listing,,Single Family Residential,1229 S 57th Ct,CICERO,IL,60804,259999,6,3.0,Cicero,3256,4159,1931,49,80,,Active,,,http://www.redfin.com/IL/Cicero/1229-S-57th-Ct-60804/home/13240969,MRED,10084914,N,Y,41.8645081,-87.7677042
MLS Listing,,Single Family Residential,3427 N Pacific Ave,CHICAGO,IL,60634,269900,2,1.5,Dunning,1500,3781,1945,49,180,,Active,,,http://www.redfin.com/IL/Chicago/3427-N-Pacific-Ave-60634/home/13540664,MRED,10084869,N,Y,41.942004,-87.826259
MLS Listing,,Condo/Co-op,461 E Bowen Ave #3,CHICAGO,IL,60653,269900,3,2.0,Grand Boulevard,2054,,2005,50,131,190,Active,,,http://www.redfin.com/IL/Chicago/461-E-Bowen-Ave-60653/unit-3/home/18941211,MRED,10084661,N,Y,41.8190568,-87.6142692
MLS Listing,,Single Family Residential,3321 N Oketo Ave,CHICAGO,IL,60634,250000,3,1.5,Dunning,1118,3476,1921,52,224,,Active,,,http://www.redfin.com/IL/Chicago/3321-N-Oketo-Ave-60634/home/12554839,MRED,10083419,N,Y,41.9403738,-87.8112362
MLS Listing,,Single Family Residential,4034 S Campbell Ave,CHICAGO,IL,60632,255000,4,2.0,Brighton Park,4166,3471,1902,52,61,,Active,,,http://www.redfin.com/IL/Chicago/4034-S-Campbell-Ave-60632/home/14037619,MRED,10083347,N,Y,41.8199386,-87.6874851
MLS Listing,,Condo/Co-op,5978 N LINCOLN Ave Unit 5B,CHICAGO,IL,60659,259777,3,2.5,West Ridge,1400,,2005,53,186,561,Active,,,http://www.redfin.com/IL/Chicago/5978-N-Lincoln-Ave-60659/unit-5B/home/22995466,MRED,10082708,N,Y,41.9895704,-87.7066005
MLS Listing,,Single Family Residential,11445 S St Louis Ave,CHICAGO,IL,60655,274900,3,2.5,Mount Greenwood,1539,3706,1945,53,179,,Active,,,http://www.redfin.com/IL/Chicago/11445-S-St-Louis-Ave-60655/home/13136542,MRED,10082611,N,Y,41.6851828,-87.7076591
MLS Listing,,Condo/Co-op,2243 W Ainslie St Unit 2W,CHICAGO,IL,60625,250000,2,1.0,Lincoln Square,,,,53,,187,Active,,,http://www.redfin.com/IL/Chicago/2243-W-Ainslie-St-60625/unit-2W/home/147047478,MRED,10082422,N,Y,41.9703294,-87.6856608
MLS Listing,,Single Family Residential,3041 W 36TH St,CHICAGO,IL,60632,258000,5,2.0,Brighton Park,840,,,53,307,,Active,,,http://www.redfin.com/IL/Chicago/3041-W-36th-St-60632/unit-1/home/14127568,MRED,10082266,N,Y,41.827874,-87.701337
MLS Listing,,Condo/Co-op,2030 W IRVING PARK Rd #1,CHICAGO,IL,60618,264900,2,2.0,North Center,1000,,1906,53,265,179,Active,,,http://www.redfin.com/IL/Chicago/2030-W-Irving-Park-Rd-60618/unit-1/home/12596891,MRED,10082221,N,Y,41.9544433,-87.680004
MLS Listing,,Condo/Co-op,4000 S Western Ave #4,CHICAGO,IL,60609,275000,3,2.0,Brighton Park,1450,,2010,53,190,,Active,,,http://www.redfin.com/IL/Chicago/4000-S-Western-Ave-60609/unit-4/home/26823031,MRED,10081362,N,Y,41.8210045,-87.6851764
MLS Listing,,Condo/Co-op,235 W VAN BUREN St #3117,CHICAGO,IL,60607,250000,1,1.0,Loop,800,,2009,54,313,287,Active,,,http://www.redfin.com/IL/Chicago/235-W-Van-Buren-St-60607/unit-3117/home/147037090,MRED,10080714,N,Y,41.8765326,-87.6347559
MLS Listing,,Condo/Co-op,1345 S Wabash Ave #505,CHICAGO,IL,60605,250000,1,1.0,Near South Side,728,,2015,54,343,269,Active,November-10-2018 12:30 PM,November-10-2018 02:00 PM,http://www.redfin.com/IL/Chicago/1345-S-Wabash-Ave-60605/unit-505/home/72132702,MRED,10080611,N,Y,41.8644184,-87.625483
MLS Listing,,Single Family Residential,6438 S Kedvale Ave,CHICAGO,IL,60629,260000,4,2.0,West Lawn,1800,3750,1937,55,144,,Active,,,http://www.redfin.com/IL/Chicago/6438-S-Kedvale-Ave-60629/home/13993391,MRED,10079874,N,Y,41.7755966,-87.7265544
MLS Listing,,Condo/Co-op,3210 N Kilbourn Ave #3,CHICAGO,IL,60641,264000,2,2.0,Irving Park,1779,,2006,55,148,165,Active,,,http://www.redfin.com/IL/Chicago/3210-N-Kilbourn-Ave-60641/unit-3/home/12566393,MRED,10079762,N,Y,41.9392905,-87.7399637
MLS Listing,,Condo/Co-op,2639 W Gunnison St Unit 2B,CHICAGO,IL,60625,264900,2,1.0,Lincoln Square,1250,,,55,212,250,Active,,,http://www.redfin.com/IL/Chicago/2639-W-Gunnison-St-60625/unit-2B/home/12775645,MRED,10079579,N,Y,41.9694837,-87.695351
MLS Listing,,Condo/Co-op,4951 N Wolcott Ave Unit 2B,CHICAGO,IL,60640,260000,2,1.0,Lincoln Square,1000,,1942,55,260,382,Active,,,http://www.redfin.com/IL/Chicago/4951-N-Wolcott-Ave-60640/unit-2B/home/12744711,MRED,10079517,N,Y,41.9721491,-87.6758194
MLS Listing,,Single Family Residential,1182 S Lyman Ave,OAK PARK,IL,60304,259900,3,2.0,Oak Park,960,3149,1920,55,271,,Active,,,http://www.redfin.com/IL/Oak-Park/1182-Lyman-Ave-60304/home/13251169,MRED,10079494,N,Y,41.8659925,-87.7762756
MLS Listing,,Condo/Co-op,5247 N Winthrop Ave #2,CHICAGO,IL,60640,269900,3,2.0,Edgewater,,,1920,55,,405,Active,,,http://www.redfin.com/IL/Chicago/5247-N-Winthrop-Ave-60640/unit-2/home/12806979,MRED,10079056,N,Y,41.9777493,-87.6574483
MLS Listing,,Multi-Family (2-4 Unit),6642 S St Lawrence Ave,Chicago,IL,60637,259900,9,3.0,Woodlawn,,3125,1925,56,,,Active,,,http://www.redfin.com/IL/Chicago/6642-S-St-Lawrence-Ave-60637/unit-1STFL/home/13929132,MRED,10078740,N,Y,41.77358,-87.611012
MLS Listing,,Multi-Family (2-4 Unit),7953 S Merrill Ave,Chicago,IL,60617,259900,6,3.0,South Chicago,,4375,1921,56,,,Active,,,http://www.redfin.com/IL/Chicago/7953-S-Merrill-Ave-60617/home/13218658,MRED,10078739,N,Y,41.7500655,-87.5720065
MLS Listing,,Townhouse,5409 W Galewood Ave,Chicago,IL,60639,269000,3,2.5,Austin,,,2008,56,,242,Active,,,http://www.redfin.com/IL/Chicago/5409-W-Galewood-Ave-60639/home/26805987,MRED,10078418,N,Y,41.9149595,-87.7612159
MLS Listing,,Condo/Co-op,1137 W Lill Ave Unit 3W,CHICAGO,IL,60614,275000,2,1.0,Lincoln Park,,,,56,,250,Active,,,http://www.redfin.com/IL/Chicago/1137-W-Lill-Ave-60614/unit-3W/home/13360979,MRED,10077706,N,Y,41.927773,-87.657641
MLS Listing,,Condo/Co-op,70 W HURON St #2606,CHICAGO,IL,60654,265000,1,1.0,Near North Side,,,1985,56,,646,Active,,,http://www.redfin.com/IL/Chicago/70-W-Huron-St-60654/unit-2606/home/14101287,MRED,10077668,N,Y,41.8952557,-87.6308799
MLS Listing,,Condo/Co-op,1922 W Touhy Ave #1,CHICAGO,IL,60626,269900,4,2.0,Rogers Park,,,1914,56,,435,Active,,,http://www.redfin.com/IL/Chicago/1922-W-Touhy-Ave-60626/unit-1/home/13572845,MRED,10077644,N,Y,42.0128825,-87.6791305
MLS Listing,,Single Family Residential,5923 S MONITOR Ave,CHICAGO,IL,60638,274000,3,2.0,Clearing,1330,5248,1960,59,206,,Active,,,http://www.redfin.com/IL/Chicago/5923-S-Monitor-Ave-60638/home/14001553,MRED,10076441,N,Y,41.7845212,-87.7678196
MLS Listing,,Single Family Residential,6111 S Keeler Ave,CHICAGO,IL,60629,259900,4,3.0,West Lawn,1688,3781,1915,59,154,,Active,,,http://www.redfin.com/IL/Chicago/6111-S-Keeler-Ave-60629/home/14004279,MRED,10076091,N,Y,41.7818678,-87.7274393
MLS Listing,,Condo/Co-op,6216 N Fairfield Ave #1,CHICAGO,IL,60659,275000,3,2.0,West Ridge,1500,,2006,59,183,168,Active,,,http://www.redfin.com/IL/Chicago/6216-N-Fairfield-Ave-60659/unit-1/home/13519738,MRED,10075934,N,Y,41.9945673,-87.6986638
MLS Listing,,Condo/Co-op,900 N KINGSBURY St #919,CHICAGO,IL,60610,260000,1,1.0,Near North Side,900,,,59,289,605,Active,,,http://www.redfin.com/IL/Chicago/900-N-Kingsbury-St-60610/unit-919/home/12665861,MRED,10075313,N,Y,41.8987748,-87.6447692
MLS Listing,,Condo/Co-op,1249 W ROSCOE St #2,Chicago,IL,60657,264900,2,1.0,Lake View,,,,59,,208,Active,,,http://www.redfin.com/IL/Chicago/1249-W-Roscoe-St-60657/unit-2/home/45510431,MRED,10075307,N,Y,41.9433008,-87.6611196
MLS Listing,,Multi-Family (2-4 Unit),4220 S Calumet Ave,CHICAGO,IL,60653,259900,12,7.0,Grand Boulevard,,3150,,59,,,Active,,,http://www.redfin.com/IL/Chicago/4220-S-Calumet-Ave-60653/home/13960701,MRED,10075168,N,Y,41.8177511,-87.6186668
MLS Listing,,Condo/Co-op,1601 S INDIANA Ave #215,CHICAGO,IL,60616,274900,2,1.5,Near South Side,1150,10000,1995,60,239,360,Active,,,http://www.redfin.com/IL/Chicago/1601-S-Indiana-Ave-60616/unit-215/home/14083468,MRED,10074926,N,Y,41.8597792,-87.6218747
MLS Listing,,Single Family Residential,2207 N Moody Ave,CHICAGO,IL,60639,275000,4,2.0,Belmont Cragin,,3750,,60,,,Active,,,http://www.redfin.com/IL/Chicago/2207-N-Moody-Ave-60639/home/13429471,MRED,10074873,N,Y,41.9204271,-87.7789659
MLS Listing,,Condo/Co-op,900 N LAKE SHORE Dr #914,CHICAGO,IL,60611,259900,0,1.0,Near North Side,500,,1955,60,520,321,Active,,,http://www.redfin.com/IL/Chicago/900-N-Lake-Shore-Dr-60611/unit-914/home/14121093,MRED,10074834,N,Y,41.8996853,-87.6196674
MLS Listing,,Condo/Co-op,4234 S Ellis Ave Unit 2B,CHICAGO,IL,60653,269900,2,2.0,Oakland,,,2015,60,,299,Active,,,http://www.redfin.com/IL/Chicago/4234-S-Ellis-Ave-60653/unit-2B/home/113099364,MRED,10043134,N,Y,41.817067,-87.6020888
MLS Listing,,Condo/Co-op,405 N WABASH Ave #302,CHICAGO,IL,60611,250000,1,1.0,Near North Side,900,,1977,60,278,530,Active,,,http://www.redfin.com/IL/Chicago/405-N-Wabash-Ave-60611/unit-302/home/14098761,MRED,10074342,N,Y,41.889792,-87.6260503
MLS Listing,,Condo/Co-op,400 E Randolph St #1404,CHICAGO,IL,60601,250000,0,1.0,Loop,650,,1963,60,385,451,Active,,,http://www.redfin.com/IL/Chicago/400-E-Randolph-St-60601/unit-1404/home/14094522,MRED,10067164,N,Y,41.8848489,-87.6168112
MLS Listing,,Single Family Residential,9600 S BELL Ave,CHICAGO,IL,60643,265000,3,2.0,Beverly,,8001,1955,60,,,Active,,,http://www.redfin.com/IL/Chicago/9600-S-Bell-Ave-60643/home/13099200,MRED,10074152,N,Y,41.7189892,-87.6787429
MLS Listing,,Condo/Co-op,2240 W SCHOOL St #2,CHICAGO,IL,60618,250000,2,1.0,North Center,,,,61,,162,Active,,,http://www.redfin.com/IL/Chicago/2240-W-School-St-60618/unit-2/home/12683414,MRED,10072690,N,Y,41.9414773,-87.6848182
MLS Listing,,Multi-Family (2-4 Unit),4712 W West End Ave,CHICAGO,IL,60644,273897,6,3.0,Austin,,4791,1905,61,,,Active,,,http://www.redfin.com/IL/Chicago/4712-W-West-End-Ave-60644/unit-1/home/13263537,MRED,10072684,N,Y,41.8835851,-87.7435454
MLS Listing,,Single Family Residential,2626 N Mont Clare Ave,CHICAGO,IL,60707,259000,3,2.0,Montclare,790,3750,1912,61,328,,Active,,,http://www.redfin.com/IL/Chicago/2626-N-Mont-Clare-Ave-60707/home/13434022,MRED,10072640,N,Y,41.9279617,-87.8042078
MLS Listing,,Condo/Co-op,1250 W ARGYLE St Unit CH,CHICAGO,IL,60640,269500,2,1.0,Uptown,,,2004,61,,234,Active,,,http://www.redfin.com/IL/Chicago/1250-W-Argyle-St-60640/unit-CH/home/144943198,MRED,10072230,N,Y,41.9729314,-87.661851
