SALE TYPE,SOLD DATE,PROPERTY TYPE,ADDRESS,CITY,STATE,ZIP,PRICE,BEDS,BATHS,LOCATION,SQUARE FEET,LOT SIZE,YEAR BUILT,DAYS ON MARKET,$/SQUARE FEET,HOA/MONTH,STATUS,NEXT OPEN HOUSE START TIME,NEXT OPEN HOUSE END TIME,URL (SEE http://www.redfin.com/buy-a-home/comparative-market-analysis FOR INFO ON PRICING),SOURCE,MLS#,FAVORITE,INTERESTED,LATITUDE,LONGITUDE
MLS Listing,,Single Family Residential,1207 E 44th Pl,CHICAGO,IL,60653,475000,3,3.0,Kenwood,1628,2956,1998,18,292,,Active,,,http://www.redfin.com/IL/Chicago/1207-E-44th-Pl-60653/home/13961464,MRED,10113665,N,Y,41.8141601,-87.5964351
MLS Listing,,Condo/Co-op,2750 N Racine Ave #3,CHICAGO,IL,60614,499999,2,2.0,Lincoln Park,1337,,2000,31,374,116,Active,,,http://www.redfin.com/IL/Chicago/2750-N-Racine-Ave-60614/unit-3/home/12715698,MRED,10104374,N,Y,41.9322277,-87.6589093
MLS Listing,,Condo/Co-op,1925 W DIVISION St #3,CHICAGO,IL,60622,499999,2,2.0,West Town,,,1891,57,,182,Active,,,http://www.redfin.com/IL/Chicago/1925-W-Division-St-60622/unit-3/home/12714920,MRED,10077389,N,Y,41.902914,-87.6758448
Redfin Data,,Townhouse,1719 N Mohawk St Unit G,Chicago,IL,60614,485000,2,2.5,Chicago,1216,924,1971,27,399,95,Pre On-Market,,,http://www.redfin.com/IL/Chicago/1719-N-Mohawk-St-60614/unit-G/home/13347189,Coming Soon,21385,N,Y,41.9135157,-87.6419837
MLS Listing,,Multi-Family (2-4 Unit),1264 W Victoria St,CHICAGO,IL,60660,499900,4,2.0,Edgewater,,2178,1896,1,,,Active,,,http://www.redfin.com/IL/Chicago/1264-W-Victoria-St-60660/unit-1/home/13409001,MRED,10130768,N,Y,41.9875518,-87.6622156
MLS Listing,,Condo/Co-op,1213 N Noble St #3,CHICAGO,IL,60642,475000,2,2.0,West Town,1221,,2005,1,389,230,Active,,,http://www.redfin.com/IL/Chicago/1213-N-Noble-St-60642/unit-3/home/26812492,MRED,10130730,N,Y,41.9038728,-87.6623446
MLS Listing,,Single Family Residential,7216 N Oconto Ave,CHICAGO,IL,60631,489000,4,3.0,Edison Park,1800,5625,1945,1,272,,Active,,,http://www.redfin.com/IL/Chicago/7216-N-Oconto-Ave-60631/home/13651760,MRED,10130614,N,Y,42.012224,-87.8081254
MLS Listing,,Condo/Co-op,1713 N North Park Ave #4,CHICAGO,IL,60614,489900,2,2.0,Lincoln Park,1320,,,1,371,428,Active,,,http://www.redfin.com/IL/Chicago/1713-N-North-Park-Ave-60614/unit-4/home/13343233,MRED,10130522,N,Y,41.9132234,-87.6364298
MLS Listing,,Condo/Co-op,2107 W BELMONT Ave Unit 3A,CHICAGO,IL,60618,499000,3,2.0,North Center,1700,,2003,1,294,292,Active,,,http://www.redfin.com/IL/Chicago/2107-W-Belmont-Ave-60618/unit-3A/home/12698480,MRED,10130380,N,Y,41.9392879,-87.6811197
MLS Listing,,Condo/Co-op,3016 W BELMONT Ave Unit 2W,CHICAGO,IL,60618,489500,3,2.0,Avondale,1900,,2018,1,258,200,Active,,,http://www.redfin.com/IL/Chicago/3016-W-Belmont-Ave-60618/unit-2W/home/145870029,MRED,10130057,N,Y,41.939618,-87.703427
MLS Listing,,Single Family Residential,6123 S Menard Ave,CHICAGO,IL,60638,489000,4,3.5,Clearing,3000,3781,2007,2,163,,Active,,,http://www.redfin.com/IL/Chicago/6123-S-Menard-Ave-60638/home/12795184,MRED,10129372,N,Y,41.7809218,-87.7664741
MLS Listing,,Multi-Family (2-4 Unit),2351 W Ohio St,CHICAGO,IL,60612,475000,4,2.0,West Town,,2178,1875,3,,,Active,,,http://www.redfin.com/IL/Chicago/2351-W-Ohio-St-60612/home/14105311,MRED,10129217,N,Y,41.891942,-87.6862914
MLS Listing,,Condo/Co-op,1030 N STATE St Unit 33B,CHICAGO,IL,60610,479000,1,2.0,Near North Side,1000,,1971,3,479,653,Active,,,http://www.redfin.com/IL/Chicago/1030-N-State-St-60610/unit-33B/home/14109999,MRED,10129046,N,Y,41.9012852,-87.6289091
MLS Listing,,Condo/Co-op,1400 S Michigan Ave #2004,CHICAGO,IL,60605,495000,2,2.0,Near South Side,1260,,2008,4,393,535,Active,,,http://www.redfin.com/IL/Chicago/1400-S-Michigan-Ave-60605/unit-2004/home/40202613,MRED,10128105,N,Y,41.8638738,-87.6244611
MLS Listing,,Condo/Co-op,1648 W Ohio St Unit 1W,CHICAGO,IL,60622,495000,3,2.5,West Town,2000,,1999,4,248,208,Active,,,http://www.redfin.com/IL/Chicago/1648-W-Ohio-St-60622/unit-1W/home/12753250,MRED,10128098,N,Y,41.8925643,-87.6690279
MLS Listing,,Condo/Co-op,260 E Chestnut St #2504,CHICAGO,IL,60611,489000,2,2.0,Near North Side,1409,,,4,347,967,Active,,,http://www.redfin.com/IL/Chicago/260-E-Chestnut-St-60611/unit-2504/home/145952606,MRED,10128068,N,Y,41.8986644,-87.6196021
MLS Listing,,Condo/Co-op,1842 N Kedzie Ave #2,CHICAGO,IL,60647,489999,3,2.5,Logan Square,1600,4425,2017,4,306,175,Active,,,http://www.redfin.com/IL/Chicago/1842-N-Kedzie-Ave-60647/unit-2/home/145230066,MRED,10128045,N,Y,41.9150351,-87.7074281
MLS Listing,,Single Family Residential,2645 W Farwell Ave,CHICAGO,IL,60645,500000,5,3.5,West Ridge,2896,6050,1945,4,173,,Active,,,http://www.redfin.com/IL/Chicago/2645-W-Farwell-Ave-60645/home/13583677,MRED,10127812,N,Y,42.0055442,-87.6967455
MLS Listing,,Multi-Family (2-4 Unit),6230 N BELL Ave,CHICAGO,IL,60645,499000,4,3.0,West Ridge,,3920,1930,4,,,Active,,,http://www.redfin.com/IL/Chicago/6230-N-Bell-Ave-60659/home/13408914,MRED,10127751,N,Y,41.9951053,-87.6864069
MLS Listing,,Single Family Residential,5636 W Warwick Ave,CHICAGO,IL,60634,479000,5,4.0,Portage Park,2200,3750,1920,4,218,,Active,,,http://www.redfin.com/IL/Chicago/5636-W-Warwick-Ave-60634/home/13465694,MRED,10127660,N,Y,41.9488261,-87.7683769
MLS Listing,,Condo/Co-op,1523 W THOMAS St #4,CHICAGO,IL,60642,499000,2,2.0,West Town,,,2006,4,,203,Active,,,http://www.redfin.com/IL/Chicago/1523-W-Thomas-St-60642/unit-4/home/18925016,MRED,10127623,N,Y,41.9012889,-87.6658783
MLS Listing,,Single Family Residential,4943 S Prairie Ave,CHICAGO,IL,60653,479900,5,3.5,Grand Boulevard,,4050,2018,4,,,Active,,,http://www.redfin.com/IL/Chicago/4943-S-Prairie-Ave-60615/home/21873785,MRED,10127569,N,Y,41.804464,-87.618954
MLS Listing,,Condo/Co-op,3237 N Hoyne Ave #1,CHICAGO,IL,60618,500000,3,2.0,North Center,2000,,1890,4,250,250,Active,November-10-2018 02:00 PM,November-10-2018 04:00 PM,http://www.redfin.com/IL/Chicago/3237-N-Hoyne-Ave-60618/unit-1/home/12743389,MRED,10127222,N,Y,41.940654,-87.6804669
MLS Listing,,Condo/Co-op,160 E ILLINOIS St #2107,CHICAGO,IL,60611,498000,2,2.0,Near North Side,1100,,2007,4,453,768,Active,,,http://www.redfin.com/IL/Chicago/160-E-Illinois-St-60611/unit-2107/home/26780273,MRED,10127140,N,Y,41.8912279,-87.6230757
MLS Listing,,Condo/Co-op,33 W ONTARIO St Unit 55F,CHICAGO,IL,60654,499000,2,2.0,Near North Side,1200,,2003,5,416,990,Active,,,http://www.redfin.com/IL/Chicago/33-W-Ontario-St-60654/unit-55F/home/21619619,MRED,10126756,N,Y,41.893042,-87.629247
MLS Listing,,Condo/Co-op,737 W Washington Blvd #904,CHICAGO,IL,60661,485000,2,2.0,Near West Side,1500,,2004,5,323,678,Active,,,http://www.redfin.com/IL/Chicago/737-W-Washington-Blvd-60661/unit-904/home/12688426,MRED,10126716,N,Y,41.8824387,-87.6469152
MLS Listing,,Condo/Co-op,2125 W BELMONT Ave Unit 4E,CHICAGO,IL,60618,499900,3,2.0,North Center,1800,,2004,5,278,299,Active,,,http://www.redfin.com/IL/Chicago/2125-W-Belmont-Ave-60618/unit-4E/home/28725848,MRED,10126384,N,Y,41.9394327,-87.6817746
MLS Listing,,Multi-Family (2-4 Unit),3019 N OAKLEY Ave,CHICAGO,IL,60618,499000,6,3.0,North Center,,3125,1890,6,,,Active,,,http://www.redfin.com/IL/Chicago/3019-N-Oakley-Ave-60618/home/12804425,MRED,10125923,N,Y,41.9364408,-87.6853286
MLS Listing,,Condo/Co-op,1800 N Richmond St #3,CHICAGO,IL,60647,475000,2,2.0,Logan Square,,,2018,6,,175,Active,,,http://www.redfin.com/IL/Chicago/1800-N-Richmond-St-60647/unit-3/home/145681715,MRED,10125693,N,Y,41.9140089,-87.7006531
MLS Listing,,Single Family Residential,7342 N Odell Ave,CHICAGO,IL,60631,475000,3,2.0,Edison Park,1600,4748,1950,6,297,,Active,,,http://www.redfin.com/IL/Chicago/7342-N-Odell-Ave-60631/home/13651631,MRED,10125530,N,Y,42.0146687,-87.8105833
MLS Listing,,Single Family Residential,5232 N Larned Ave,CHICAGO,IL,60630,480000,5,2.0,Jefferson Park,,3088,1926,6,,,Active,,,http://www.redfin.com/IL/Chicago/5232-N-Larned-Ave-60630/home/13498796,MRED,10125468,N,Y,41.9773303,-87.760054
MLS Listing,,Condo/Co-op,222 E Pearson St #502,CHICAGO,IL,60611,485000,3,2.0,Near North Side,1570,,1963,6,309,1181,Active,,,http://www.redfin.com/IL/Chicago/222-E-Pearson-St-60611/unit-502/home/12608432,MRED,10125445,N,Y,41.8979023,-87.620689
MLS Listing,,Condo/Co-op,1620 W AUGUSTA Blvd Unit 1W,CHICAGO,IL,60622,499000,3,2.5,West Town,1750,,2007,6,285,200,Active,,,http://www.redfin.com/IL/Chicago/1620-W-Augusta-Blvd-60622/unit-1W/home/12608302,MRED,10125418,N,Y,41.8998941,-87.6683587
MLS Listing,,Multi-Family (2-4 Unit),5425 W Hutchinson St,CHICAGO,IL,60641,490000,5,3.0,Portage Park,,3484,1921,6,,,Active,November-10-2018 11:00 AM,November-10-2018 01:00 PM,http://www.redfin.com/IL/Chicago/5425-W-Hutchinson-St-60641/home/13478845,MRED,10125408,N,Y,41.9575649,-87.763293
MLS Listing,,Condo/Co-op,2733 N Hampden Ct Unit 1R,CHICAGO,IL,60614,499000,4,2.0,Lincoln Park,1880,,1903,6,265,239,Active,November-10-2018 12:00 PM,November-10-2018 02:00 PM,http://www.redfin.com/IL/Chicago/2733-N-Hampden-Ct-60614/unit-1R/home/13368540,MRED,10125264,N,Y,41.9316444,-87.6417142
MLS Listing,,Single Family Residential,5751 W Eddy St,CHICAGO,IL,60634,495000,5,4.0,Portage Park,3400,3907,1921,6,146,,Active,,,http://www.redfin.com/IL/Chicago/5751-W-Eddy-St-60634/home/13465490,MRED,10125171,N,Y,41.9447173,-87.7711637
MLS Listing,,Condo/Co-op,1537 W Fry St #2,CHICAGO,IL,60642,499900,2,2.0,West Town,,,2015,6,,125,Active,,,http://www.redfin.com/IL/Chicago/1537-W-Fry-St-60642/unit-2/home/56618458,MRED,10125089,N,Y,41.8967736,-87.6664162
MLS Listing,,Condo/Co-op,1443 W Fillmore St Unit B,CHICAGO,IL,60607,479900,3,2.5,Near West Side,1600,,2000,6,300,100,Active,,,http://www.redfin.com/IL/Chicago/1443-W-Fillmore-St-60607/unit-B/home/144943350,MRED,10125064,N,Y,41.8683479,-87.663295
MLS Listing,,Townhouse,1529 N Bosworth Ave #3,CHICAGO,IL,60642,480000,3,2.0,West Town,1550,,2005,7,310,284,Active,,,http://www.redfin.com/IL/Chicago/1529-N-Bosworth-Ave-60642/unit-3/home/147923598,MRED,10124411,N,Y,41.9097024,-87.6661754
MLS Listing,,Condo/Co-op,165 N CANAL St #1016,CHICAGO,IL,60606,500000,2,2.0,Near West Side,1700,,,7,294,733,Active,,,http://www.redfin.com/IL/Chicago/165-N-Canal-St-60606/unit-1016/home/12767307,MRED,10124180,N,Y,41.8850065,-87.6393978
MLS Listing,,Single Family Residential,4247 W ROSCOE St,CHICAGO,IL,60641,499500,5,3.0,Irving Park,,3750,,7,,,Active,,,http://www.redfin.com/IL/Chicago/4247-W-Roscoe-St-60641/home/13456606,MRED,10124072,N,Y,41.9424048,-87.734018
MLS Listing,,Multi-Family (2-4 Unit),2347 W Huron St,CHICAGO,IL,60612,499000,5,2.0,West Town,,3484,1885,10,,,Active,,,http://www.redfin.com/IL/Chicago/2347-W-Huron-St-60612/home/14105513,MRED,10123117,N,Y,41.8937226,-87.6861758
MLS Listing,,Single Family Residential,4310 N Bernard St,CHICAGO,IL,60618,499999,3,3.5,Irving Park,2250,3123,1962,10,222,,Active,,,http://www.redfin.com/IL/Chicago/4310-N-Bernard-St-60618/home/13484410,MRED,10122850,N,Y,41.9597456,-87.7146351
MLS Listing,,Condo/Co-op,845 W Altgeld St Unit 3A,CHICAGO,IL,60614,499900,2,2.0,Lincoln Park,1400,,1997,10,357,419,Active,,,http://www.redfin.com/IL/Chicago/845-W-Altgeld-St-60614/unit-3A/home/12741629,MRED,10122497,N,Y,41.927087,-87.650711
MLS Listing,,Condo/Co-op,1040 W Adams St #338,CHICAGO,IL,60607,475000,2,2.0,Near West Side,1200,,2006,10,396,765,Active,,,http://www.redfin.com/IL/Chicago/1040-W-Adams-St-60607/unit-338/home/26817772,MRED,10122427,N,Y,41.8795309,-87.6537879
MLS Listing,,Condo/Co-op,1457 W Thomas St Unit 2W,CHICAGO,IL,60642,499900,3,2.0,West Town,1500,,2005,10,333,247,Active,,,http://www.redfin.com/IL/Chicago/1457-W-Thomas-St-60642/unit-2W/home/12623759,MRED,10122418,N,Y,41.901308,-87.664677
MLS Listing,,Condo/Co-op,1751 W Division St Unit 3E,CHICAGO,IL,60622,479900,2,2.0,West Town,1459,,2001,11,329,373,Active,,,http://www.redfin.com/IL/Chicago/1751-W-Division-St-60622/unit-3E/home/12713735,MRED,10122360,N,Y,41.9030274,-87.6719058
MLS Listing,,Condo/Co-op,817 N BISHOP St #2,CHICAGO,IL,60622,479900,2,2.0,West Town,1500,,2001,11,320,125,Active,,,http://www.redfin.com/IL/Chicago/817-N-Bishop-St-60642/unit-2/home/12714558,MRED,10122085,N,Y,41.8966932,-87.6632664
MLS Listing,,Single Family Residential,4451 N TRIPP Ave,CHICAGO,IL,60630,499900,5,3.0,Irving Park,2922,3271,1908,11,171,,Active,,,http://www.redfin.com/IL/Chicago/4451-N-Tripp-Ave-60630/home/13481286,MRED,10122040,N,Y,41.962382,-87.733941
MLS Listing,,Condo/Co-op,1021 N Honore St #2,CHICAGO,IL,60622,499999,2,2.0,West Town,1200,3125,2015,11,417,149,Active,,,http://www.redfin.com/IL/Chicago/1021-N-Honore-St-60622/unit-2/home/14106533,MRED,10121890,N,Y,41.9002833,-87.6732348
MLS Listing,,Condo/Co-op,2161 N California Ave #108,CHICAGO,IL,60647,494000,2,2.0,Logan Square,1495,,1925,11,330,320,Active,,,http://www.redfin.com/IL/Chicago/2161-N-California-Ave-60647/unit-108/home/12776598,MRED,10121693,N,Y,41.9214096,-87.6969687
MLS Listing,,Condo/Co-op,4927 N Damen Ave Unit 2D,CHICAGO,IL,60625,499900,3,2.0,Lincoln Square,,,2006,11,,250,Active,,,http://www.redfin.com/IL/Chicago/4927-N-Damen-Ave-60625/unit-2D/home/18936241,MRED,10121412,N,Y,41.9714842,-87.6788392
MLS Listing,,Condo/Co-op,1506 W Cullom Ave Unit B1,CHICAGO,IL,60613,499000,3,2.0,Lake View,,,,12,,355,Active,,,http://www.redfin.com/IL/Chicago/1506-W-Cullom-Ave-60613/unit-B-1/home/12628136,MRED,10120965,N,Y,41.9599512,-87.6680743
MLS Listing,,Single Family Residential,4611 S Indiana Ave,CHICAGO,IL,60653,499900,5,3.5,Grand Boulevard,3135,8032,2018,12,159,,Active,,,http://www.redfin.com/IL/Chicago/4611-S-Indiana-Ave-60653/home/147761491,MRED,10120936,N,Y,41.8107476,-87.6208332
MLS Listing,,Single Family Residential,10622 S Hamilton Ave,CHICAGO,IL,60643,489000,4,3.0,Beverly,,6150,1926,12,,,Active,,,http://www.redfin.com/IL/Chicago/10622-S-Hamilton-Ave-60643/home/13072477,MRED,10120720,N,Y,41.7002601,-87.6757
MLS Listing,,Townhouse,2319 N Hamilton Ave #6,CHICAGO,IL,60647,500000,3,2.5,Logan Square,1935,,2001,12,258,177,Active,,,http://www.redfin.com/IL/Chicago/2319-N-Hamilton-Ave-60647/unit-6/home/12698897,MRED,10120668,N,Y,41.9233343,-87.6810813
MLS Listing,,Multi-Family (2-4 Unit),1738 N Richmond St,CHICAGO,IL,60647,499000,5,2.0,West Town,,2613,1875,12,,,Active,,,http://www.redfin.com/IL/Chicago/1738-N-Richmond-St-60647/unit-2/home/13416720,MRED,10120648,N,Y,41.9134922,-87.7006692
MLS Listing,,Condo/Co-op,1417 W Chicago Ave #3,CHICAGO,IL,60642,500000,3,2.0,West Town,,,2005,12,,332,Active,,,http://www.redfin.com/IL/Chicago/1417-W-Chicago-Ave-60642/unit-3/home/12593278,MRED,10120522,N,Y,41.895855,-87.6630397
MLS Listing,,Condo/Co-op,1358 W Fillmore St Unit B,CHICAGO,IL,60607,499000,3,2.5,Near West Side,1600,,2000,12,312,180,Active,,,http://www.redfin.com/IL/Chicago/1358-W-Fillmore-St-60607/unit-B/home/12763735,MRED,10120452,N,Y,41.8687214,-87.6614455
MLS Listing,,Condo/Co-op,1333 W FILLMORE St #1,CHICAGO,IL,60607,479000,3,2.5,Near West Side,2400,,2000,12,200,150,Active,,,http://www.redfin.com/IL/Chicago/1333-W-Fillmore-St-60607/unit-1/home/144869166,MRED,10120355,N,Y,41.8683617,-87.6604346
MLS Listing,,Condo/Co-op,315 N Jefferson St #201,CHICAGO,IL,60661,499900,2,2.0,Near West Side,1250,,2000,13,400,350,Active,,,http://www.redfin.com/IL/Chicago/315-N-Jefferson-St-60661/unit-201/home/12714622,MRED,10119380,N,Y,41.8873636,-87.6425242
MLS Listing,,Townhouse,468 W Elm St #105,CHICAGO,IL,60610,499900,2,2.0,Near North Side,1600,,2008,13,312,298,Active,,,http://www.redfin.com/IL/Chicago/468-W-Elm-St-60610/unit-105/home/28946211,MRED,10119207,N,Y,41.903135,-87.6414633
MLS Listing,,Condo/Co-op,909 W Washington Blvd #912,CHICAGO,IL,60607,489000,2,2.0,Near West Side,1263,,2003,14,387,509,Active,,,http://www.redfin.com/IL/Chicago/909-W-Washington-Blvd-60607/unit-912/home/12621491,MRED,10118975,N,Y,41.8828292,-87.6503525
MLS Listing,,Condo/Co-op,1641 W WINONA St Unit A,CHICAGO,IL,60640,499000,3,3.0,Uptown,2400,,,14,208,238,Active,,,http://www.redfin.com/IL/Chicago/1641-W-Winona-St-60640/unit-A/home/21815336,MRED,10118878,N,Y,41.9750247,-87.6712339
MLS Listing,,Single Family Residential,201 East Ave,PARK RIDGE,IL,60068,499900,5,3.0,Park Ridge,2040,6451,1926,14,245,,Active,,,http://www.redfin.com/IL/Park-Ridge/201-East-Ave-60068/home/13650860,MRED,10118760,N,Y,42.0136161,-87.8203368
MLS Listing,,Single Family Residential,4134 N Menard Ave,CHICAGO,IL,60634,477700,5,3.0,Portage Park,,3750,,14,,,Active,,,http://www.redfin.com/IL/Chicago/4134-N-Menard-Ave-60634/home/13473361,MRED,10118751,N,Y,41.9559686,-87.7723168
MLS Listing,,Vacant Land,2308 N Lister Ave,Chicago,IL,60614,499000,,,Logan Square,,3484,,14,,,Active,,,http://www.redfin.com/IL/Chicago/2308-N-Lister-Ave-60614/home/13358001,MRED,10118416,N,Y,41.9227025,-87.6763163
MLS Listing,,Townhouse,3243 N Ravenswood Ave,CHICAGO,IL,60657,500000,3,1.5,Lake View,,,1993,14,,100,Active,November-11-2018 12:00 PM,November-11-2018 02:00 PM,http://www.redfin.com/IL/Chicago/3243-N-Ravenswood-Ave-60657/home/13384254,MRED,10110426,N,Y,41.9409053,-87.673346
MLS Listing,,Multi-Family (2-4 Unit),3043 W Belmont Ave,CHICAGO,IL,60618,480000,4,2.5,Avondale,,3049,1895,15,,,Active,,,http://www.redfin.com/IL/Chicago/3043-W-Belmont-Ave-60618/home/13452035,MRED,10117968,N,Y,41.9391862,-87.7044642
MLS Listing,,Condo/Co-op,2400 N Lakeview Ave #2204,CHICAGO,IL,60614,499900,3,2.0,Lincoln Park,,,1963,16,,1144,Active,,,http://www.redfin.com/IL/Chicago/2400-N-Lakeview-Ave-60614/unit-2204/home/13365633,MRED,10117456,N,Y,41.9259894,-87.6394991
MLS Listing,,Townhouse,2237 W Coulter St #1,CHICAGO,IL,60608,499900,3,2.5,Lower West Side,2000,,2018,17,250,230,Active,,,http://www.redfin.com/IL/Chicago/2237-W-Coulter-St-60608/unit-1/home/147712627,MRED,10117176,N,Y,41.8470118,-87.682073
MLS Listing,,Townhouse,3355 N Racine Ave,CHICAGO,IL,60657,485000,3,1.5,Lake View,,,,17,,448,Active,,,http://www.redfin.com/IL/Chicago/3355-N-Racine-Ave-60657/home/13381424,MRED,10117164,N,Y,41.9432872,-87.6588833
MLS Listing,,Single Family Residential,6513 S Woodlawn Ave,CHICAGO,IL,60637,500000,4,3.5,Woodlawn,3000,3382,1890,17,167,,Active,,,http://www.redfin.com/IL/Chicago/6513-S-Woodlawn-Ave-60637/home/13926163,MRED,10116875,N,Y,41.7764112,-87.595849
MLS Listing,,Townhouse,2341 W MORSE Ave,CHICAGO,IL,60645,479900,3,3.5,West Ridge,,1440,2019,17,,120,Active,,,http://www.redfin.com/IL/Chicago/2341-W-Morse-Ave-60645/home/147709696,MRED,10116615,N,Y,42.00692,-87.6893787
MLS Listing,,Townhouse,2339 W MORSE Ave,CHICAGO,IL,60645,499900,3,3.5,West Ridge,,1440,2019,17,,120,Active,,,http://www.redfin.com/IL/Chicago/2339-W-Morse-Ave-60645/home/147825135,MRED,10116606,N,Y,42.0069201,-87.689372
MLS Listing,,Single Family Residential,6669 N Ionia Ave,CHICAGO,IL,60646,498000,3,2.0,Forest Glen,1852,8642,1938,17,269,,Active,,,http://www.redfin.com/IL/Chicago/6669-N-Ionia-Ave-60646/home/13591268,MRED,10116522,N,Y,42.0022266,-87.7629374
MLS Listing,,Condo/Co-op,417 N Noble St #8,CHICAGO,IL,60642,475000,3,2.5,West Town,1900,,2003,17,250,254,Active,,,http://www.redfin.com/IL/Chicago/417-N-Noble-St-60642/unit-8/home/12708184,MRED,10116388,N,Y,41.8894415,-87.6617782
MLS Listing,,Single Family Residential,419 E 48th Pl,CHICAGO,IL,60615,499950,4,4.5,Grand Boulevard,3100,2099,,17,161,,Active,,,http://www.redfin.com/IL/Chicago/419-E-48th-Pl-60615/home/13951911,MRED,10116324,N,Y,41.806359,-87.6154175
MLS Listing,,Single Family Residential,6148 N Lenox Ave,CHICAGO,IL,60646,499900,4,3.0,Forest Glen,1908,4373,1948,18,262,,Active,,,http://www.redfin.com/IL/Chicago/6148-N-Lenox-Ave-60646/home/13512226,MRED,10116061,N,Y,41.9938019,-87.7554401
MLS Listing,,Condo/Co-op,210 E PEARSON St Unit 2B,CHICAGO,IL,60611,498000,3,2.5,Near North Side,1800,,1926,18,277,1642,Active,,,http://www.redfin.com/IL/Chicago/210-E-Pearson-St-60611/unit-2B/home/14117103,MRED,10115996,N,Y,41.8978254,-87.6212025
MLS Listing,,Condo/Co-op,200 W Grand Ave #1801,CHICAGO,IL,60654,485000,3,2.0,Near North Side,,,2004,18,,1028,Active,,,http://www.redfin.com/IL/Chicago/200-W-Grand-Ave-60654/unit-1801/home/12648776,MRED,10115368,N,Y,41.8918897,-87.6344692
MLS Listing,,Condo/Co-op,455 W Oakdale Ave #1,CHICAGO,IL,60657,499000,3,2.0,Lake View,1839,,1926,18,271,616,Active,,,http://www.redfin.com/IL/Chicago/455-W-Oakdale-Ave-60657/unit-1/home/13372178,MRED,10115359,N,Y,41.9353047,-87.6415155
MLS Listing,,Single Family Residential,10826 S Talman Ave,CHICAGO,IL,60655,479900,5,3.5,Morgan Park,2850,5079,1924,19,168,,Active,,,http://www.redfin.com/IL/Chicago/10826-S-Talman-Ave-60655/home/13155975,MRED,10115100,N,Y,41.6964172,-87.6877162
MLS Listing,,Condo/Co-op,1000 W Washington Blvd #226,CHICAGO,IL,60607,499900,2,2.0,Near West Side,1500,,1884,19,333,601,Active,,,http://www.redfin.com/IL/Chicago/1000-W-Washington-Blvd-60607/unit-226/home/12575502,MRED,10114644,N,Y,41.883794,-87.6527085
MLS Listing,,Condo/Co-op,2125 W Belmont Ave Unit 2W,CHICAGO,IL,60618,500000,3,2.0,North Center,1800,6250,2004,19,278,288,Active,,,http://www.redfin.com/IL/Chicago/2125-W-Belmont-Ave-60618/unit-2W/home/12637187,MRED,10114419,N,Y,41.9394327,-87.6817746
MLS Listing,,Condo/Co-op,1335 N Astor St Unit 1C,CHICAGO,IL,60610,499900,2,2.0,Near North Side,1700,,1951,19,294,881,Active,,,http://www.redfin.com/IL/Chicago/1335-N-Astor-St-60610/unit-1C/home/113820501,MRED,10114375,N,Y,41.9069583,-87.6271603
MLS Listing,,Condo/Co-op,2921 N Halsted St Unit 1F,CHICAGO,IL,60657,489000,3,2.0,Lake View,2218,,,20,220,440,Active,,,http://www.redfin.com/IL/Chicago/2921-N-Halsted-St-60657/unit-1F/home/12651803,MRED,10114016,N,Y,41.9352364,-87.6488063
MLS Listing,,Multi-Family (2-4 Unit),3138 N Ridgeway Ave,CHICAGO,IL,60618,495000,6,3.0,Avondale,,3484,1908,20,,,Active,,,http://www.redfin.com/IL/Chicago/3138-N-Ridgeway-Ave-60618/home/13450628,MRED,10113986,N,Y,41.9382725,-87.7208597
MLS Listing,,Single Family Residential,4644 N Harding Ave,CHICAGO,IL,60625,479900,5,3.5,Albany Park,2600,3375,1906,20,185,,Active,,,http://www.redfin.com/IL/Chicago/4644-N-Harding-Ave-60625/home/13486311,MRED,10113690,N,Y,41.9659618,-87.7270161
MLS Listing,,Condo/Co-op,1722 W Erie St #2,CHICAGO,IL,60622,489000,2,2.0,West Town,,,2014,20,,117,Active,,,http://www.redfin.com/IL/Chicago/1722-W-Erie-St-60622/unit-2/home/109054252,MRED,10113204,N,Y,41.8934891,-87.6706294
MLS Listing,,Single Family Residential,5660 N Kerbs Ave,CHICAGO,IL,60646,490000,3,2.5,Forest Glen,1557,6891,1959,20,315,,Active,,,http://www.redfin.com/IL/Chicago/5660-N-Kerbs-Ave-60646/home/13513233,MRED,10113040,N,Y,41.9843924,-87.7461533
MLS Listing,,Single Family Residential,1929 W Wolfram St,CHICAGO,IL,60657,499000,3,2.0,North Center,,3123,1886,21,,,Active,,,http://www.redfin.com/IL/Chicago/1929-W-Wolfram-St-60657/home/13359108,MRED,10112916,N,Y,41.9330177,-87.6768941
MLS Listing,,Condo/Co-op,936 N Honore St #1,CHICAGO,IL,60622,495000,2,2.5,West Town,1600,,2002,21,309,141,Active,,,http://www.redfin.com/IL/Chicago/936-N-Honore-St-60622/unit-1/home/12706811,MRED,10112632,N,Y,41.8988921,-87.673802
MLS Listing,,Condo/Co-op,1739 N Humboldt Blvd Unit 1-N,CHICAGO,IL,60647,499000,3,2.5,West Town,,,2018,21,,163,Active,,,http://www.redfin.com/IL/Chicago/1739-N-Humboldt-Blvd-60647/unit-1N/home/143816735,MRED,10112598,N,Y,41.913177,-87.701211
MLS Listing,,Condo/Co-op,1621 N Humboldt Blvd Unit 1-S,CHICAGO,IL,60647,499000,3,2.5,West Town,,,2018,21,,172,Active,,,http://www.redfin.com/IL/Chicago/1621-N-Humboldt-Blvd-60647/unit-1S/home/146043519,MRED,10112601,N,Y,41.910926,-87.701137
MLS Listing,,Condo/Co-op,405 N Wabash Ave #2804,CHICAGO,IL,60611,495000,2,2.0,Near North Side,1210,,1977,21,409,601,Active,,,http://www.redfin.com/IL/Chicago/405-N-Wabash-Ave-60611/unit-2804/home/14098213,MRED,10112332,N,Y,41.889792,-87.6260503
MLS Listing,,Condo/Co-op,2226 N Lincoln Ave Unit 2A,CHICAGO,IL,60614,494000,2,2.0,Lincoln Park,1400,,1995,21,353,276,Active,,,http://www.redfin.com/IL/Chicago/2226-N-Lincoln-Ave-60614/unit-2A/home/13349803,MRED,10112294,N,Y,41.9223783,-87.6448587
MLS Listing,,Single Family Residential,4637 W Waveland Ave,CHICAGO,IL,60641,479000,4,3.0,Portage Park,2400,3750,1955,21,200,,Active,,,http://www.redfin.com/IL/Chicago/4637-W-Waveland-Ave-60641/home/13458237,MRED,10112210,N,Y,41.9477506,-87.7439803
MLS Listing,,Condo/Co-op,3047 N Oakley Ave #203,CHICAGO,IL,60618,475000,3,2.0,North Center,,,2015,21,,238,Active,,,http://www.redfin.com/IL/Chicago/3047-N-Oakley-Ave-60618/unit-203/home/77443068,MRED,10112014,N,Y,41.9372467,-87.6853774
MLS Listing,,Condo/Co-op,1720 N Kedzie Ave Unit H,CHICAGO,IL,60647,499000,3,2.5,Humboldt Park,,,1998,21,,,Active,,,http://www.redfin.com/IL/Chicago/1720-N-Kedzie-Ave-60647/unit-H/home/12754194,MRED,10111845,N,Y,41.9125556,-87.7073368
MLS Listing,,Condo/Co-op,10 E Ontario St #4402,CHICAGO,IL,60611,499500,2,2.0,Near North Side,1240,,1983,21,403,957,Active,,,http://www.redfin.com/IL/Chicago/10-E-Ontario-St-60611/unit-4402/home/12620563,MRED,10111807,N,Y,41.8936405,-87.6275331
MLS Listing,,Condo/Co-op,1212 N Wells St #1405,CHICAGO,IL,60610,479900,2,2.0,Near North Side,1450,,,23,331,735,Active,,,http://www.redfin.com/IL/Chicago/1212-N-Wells-St-60610/unit-1405/home/12753172,MRED,10111395,N,Y,41.9043205,-87.6351774
MLS Listing,,Condo/Co-op,3545 N WILTON Ave Unit 2S,CHICAGO,IL,60657,494900,2,2.0,Lake View,1600,,2005,23,309,172,Active,,,http://www.redfin.com/IL/Chicago/3545-N-Wilton-Ave-60657/unit-2S/home/12600768,MRED,10111189,N,Y,41.9468195,-87.6528144
MLS Listing,,Condo/Co-op,2817 N Oakley Ave Unit 2S,CHICAGO,IL,60618,499900,3,2.0,Logan Square,1500,10293,1974,24,333,200,Active,,,http://www.redfin.com/IL/Chicago/2817-N-Oakley-Ave-60618/unit-2S/home/145302935,MRED,10110776,N,Y,41.932775,-87.6850398
MLS Listing,,Single Family Residential,4245 N MASON Ave,CHICAGO,IL,60634,479900,5,3.0,Portage Park,2000,3750,1921,24,240,,Active,,,http://www.redfin.com/IL/Chicago/4245-N-Mason-Ave-60634/home/13474138,MRED,10110646,N,Y,41.9580822,-87.775507
MLS Listing,,Condo/Co-op,450 E Waterside Dr #303,CHICAGO,IL,60601,490000,1,1.5,Loop,1080,,2008,24,454,480,Active,,,http://www.redfin.com/IL/Chicago/450-E-Waterside-Dr-60601/unit-303/home/26780624,MRED,10110558,N,Y,41.887094,-87.6153778
MLS Listing,,Multi-Family (2-4 Unit),833 N Richmond St,Chicago,IL,60622,479000,5,3.0,West Town,,3484,1906,24,,,Active,,,http://www.redfin.com/IL/Chicago/833-N-Richmond-St-60622/home/13288132,MRED,10110337,N,Y,41.8965986,-87.7001141
MLS Listing,,Condo/Co-op,1224 W VAN BUREN St #709,CHICAGO,IL,60607,499999,3,2.0,Near West Side,,,,24,,665,Active,,,http://www.redfin.com/IL/Chicago/1224-W-Van-Buren-St-60607/unit-709/home/52593670,MRED,10110117,N,Y,41.8768396,-87.6582967
MLS Listing,,Single Family Residential,4147 S Indiana Ave,CHICAGO,IL,60653,499900,5,3.5,Grand Boulevard,3145,8049,2018,25,159,,Active,November-10-2018 12:00 PM,November-10-2018 03:00 PM,http://www.redfin.com/IL/Chicago/4147-S-Indiana-Ave-60653/home/147131216,MRED,10109969,N,Y,41.8187852,-87.6214593
MLS Listing,,Single Family Residential,2733 W Farwell Ave,CHICAGO,IL,60645,499900,5,3.5,West Ridge,1989,8001,1939,25,251,,Active,,,http://www.redfin.com/IL/Chicago/2733-W-Farwell-Ave-60645/home/13583400,MRED,10109965,N,Y,42.0055638,-87.6986897
MLS Listing,,Condo/Co-op,910 N Lake Shore Dr #1320,CHICAGO,IL,60611,499000,3,2.0,Near North Side,1440,,1955,25,347,1002,Active,,,http://www.redfin.com/IL/Chicago/910-N-Lake-Shore-Dr-60611/unit-1320/home/14119597,MRED,10109861,N,Y,41.8996853,-87.6196674
MLS Listing,,Multi-Family (2-4 Unit),1625 N Harding Ave,CHICAGO,IL,60647,485000,6,3.0,Humboldt Park,,4791,1901,25,,,Active,November-18-2018 01:00 PM,November-18-2018 03:00 PM,http://www.redfin.com/IL/Chicago/1625-N-Harding-Ave-60647/home/12567363,MRED,10109797,N,Y,41.9107311,-87.7248614
MLS Listing,,Condo/Co-op,3300 N Lake Shore Dr Unit 13B,CHICAGO,IL,60657,475000,2,2.0,Lake View,1550,,1926,25,306,861,Active,,,http://www.redfin.com/IL/Chicago/3300-N-Lake-Shore-Dr-60657/unit-13B/home/13375128,MRED,10109707,N,Y,41.9424795,-87.6403457
MLS Listing,,Condo/Co-op,1500 W Monroe St #725,CHICAGO,IL,60607,499000,2,2.0,Near West Side,1550,,2002,25,322,706,Active,,,http://www.redfin.com/IL/Chicago/1500-W-Monroe-St-60607/unit-725/home/12657043,MRED,10109625,N,Y,41.8807676,-87.664874
MLS Listing,,Townhouse,1813 S Clark St Unit K45,CHICAGO,IL,60616,475400,3,2.0,Near South Side,2000,2000,1999,25,238,273,Active,,,http://www.redfin.com/IL/Chicago/1813-S-Clark-St-60616/unit-K45/home/12762581,MRED,10109575,N,Y,41.8570884,-87.6297326
MLS Listing,,Condo/Co-op,5617 N Wayne Ave #1,CHICAGO,IL,60660,494900,3,2.5,Edgewater,2200,,1906,25,225,313,Active,,,http://www.redfin.com/IL/Chicago/5617-N-Wayne-Ave-60660/unit-1/home/21909308,MRED,10109021,N,Y,41.9841316,-87.6631814
MLS Listing,,Multi-Family (2-4 Unit),3935 N KIMBALL Ave,Chicago,IL,60618,500000,5,2.5,Irving Park,,5625,1941,25,,,Active,,,http://www.redfin.com/IL/Chicago/3935-N-Kimball-Ave-60618/home/18954346,MRED,10108947,N,Y,41.953133,-87.7125857
MLS Listing,,Single Family Residential,6621 W RAVEN St,CHICAGO,IL,60631,485000,5,4.0,Norwood Park,,4399,,26,,,Active,,,http://www.redfin.com/IL/Chicago/6621-W-Raven-St-60631/home/13509049,MRED,10108752,N,Y,41.9934932,-87.7925107
MLS Listing,,Condo/Co-op,827 N Rockwell St #3,CHICAGO,IL,60622,499900,2,2.0,West Town,,3125,2015,26,,190,Active,,,http://www.redfin.com/IL/Chicago/827-N-Rockwell-St-60622/unit-3/home/78598987,MRED,10108507,N,Y,41.8965728,-87.6915572
MLS Listing,,Townhouse,1812 S Dearborn St #30,CHICAGO,IL,60616,479000,3,2.5,Near South Side,2200,2200,1998,26,218,303,Active,,,http://www.redfin.com/IL/Chicago/1812-S-Dearborn-St-60616/unit-30/home/12785474,MRED,10108363,N,Y,41.8571053,-87.6283314
MLS Listing,,Condo/Co-op,2606 W Thomas St #3,CHICAGO,IL,60622,489887,2,2.0,West Town,,3125,2018,26,,175,Active,November-11-2018 02:30 PM,November-11-2018 04:00 PM,http://www.redfin.com/IL/Chicago/2606-W-Thomas-St-60622/unit-3/home/146268906,MRED,10108308,N,Y,41.9013256,-87.6922984
MLS Listing,,Single Family Residential,6904 N McAlpin Ave,CHICAGO,IL,60646,479000,3,2.0,Forest Glen,1312,5828,1952,26,365,,Active,,,http://www.redfin.com/IL/Chicago/6904-N-McAlpin-Ave-60646/home/13594524,MRED,10108158,N,Y,42.007594,-87.7844611
MLS Listing,,Condo/Co-op,3855 N DAMEN Ave #2,CHICAGO,IL,60618,489000,2,2.0,North Center,,3125,2018,26,,199,Active,,,http://www.redfin.com/IL/Chicago/3855-N-Damen-Ave-60618/unit-2/home/145099982,MRED,10108047,N,Y,41.952123,-87.678338
MLS Listing,,Condo/Co-op,1440 N LAKE SHORE Dr Unit 19D,CHICAGO,IL,60610,499000,2,2.0,Near North Side,1300,,1965,26,384,1195,Active,,,http://www.redfin.com/IL/Chicago/1440-N-Lake-Shore-Dr-60610/unit-19D/home/14124117,MRED,10107944,N,Y,41.9089637,-87.6266976
MLS Listing,,Condo/Co-op,3200 N Lake Shore Dr #505,CHICAGO,IL,60657,497500,3,2.0,Lake View,1800,,1966,26,276,1476,Active,,,http://www.redfin.com/IL/Chicago/3200-N-Lake-Shore-Dr-60657/unit-505/home/13375517,MRED,10107904,N,Y,41.9406554,-87.6398821
MLS Listing,,Single Family Residential,6738 N Talman Ave,Chicago,IL,60645,485000,5,2.0,West Ridge,2380,4125,1925,26,204,,Active,,,http://www.redfin.com/IL/Chicago/6738-N-Talman-Ave-60645/home/13582815,MRED,10107847,N,Y,42.0042427,-87.6964567
MLS Listing,,Condo/Co-op,1821 W ARMITAGE Ave #2,CHICAGO,IL,60622,479000,2,2.0,Logan Square,1300,,2014,26,368,222,Active,,,http://www.redfin.com/IL/Chicago/1821-W-Armitage-Ave-60622/unit-2/home/144509802,MRED,10107763,N,Y,41.9176118,-87.67362
MLS Listing,,Multi-Family (2-4 Unit),3030 N Menard Ave,CHICAGO,IL,60634,492000,4,3.0,Belmont Cragin,,3920,1926,27,,,Active,,,http://www.redfin.com/IL/Chicago/3030-N-Menard-Ave-60634/home/13438722,MRED,10107332,N,Y,41.9357793,-87.7715865
MLS Listing,,Condo/Co-op,333 N Jefferson St #501,CHICAGO,IL,60661,475000,2,2.0,Near West Side,1500,,1999,27,317,514,Active,,,http://www.redfin.com/IL/Chicago/333-N-Jefferson-St-60661/unit-501/home/12787739,MRED,10106774,N,Y,41.8878211,-87.6423935
MLS Listing,,Condo/Co-op,912 N Wolcott Ave #2,CHICAGO,IL,60622,499000,2,2.0,West Town,,,2018,28,,152,Active,,,http://www.redfin.com/IL/Chicago/912-N-Wolcott-Ave-60622/unit-2/home/144758599,MRED,10106369,N,Y,41.8982229,-87.674914
MLS Listing,,Condo/Co-op,330 S MICHIGAN Ave #2006,CHICAGO,IL,60604,500000,2,2.5,Loop,1626,,1911,28,308,1420,Active,,,http://www.redfin.com/IL/Chicago/330-S-Michigan-Ave-60604/unit-2006/home/12751444,MRED,10106299,N,Y,41.877479,-87.6245598
MLS Listing,,Single Family Residential,2152 W Huron St,CHICAGO,IL,60612,489000,3,2.0,West Town,840,2905,1891,28,582,,Active,,,http://www.redfin.com/IL/Chicago/2152-W-Huron-St-60612/home/14104209,MRED,10106178,N,Y,41.8942483,-87.6814774
MLS Listing,,Condo/Co-op,3340 N LAWNDALE Ave Unit 1S,CHICAGO,IL,60618,499900,4,3.0,Avondale,,,2018,28,,250,Active,,,http://www.redfin.com/IL/Chicago/3340-Lawndale-Ave-60618/unit-1S/home/147483917,MRED,10106030,N,Y,41.9422113,-87.7201959
MLS Listing,,Condo/Co-op,924 S Carpenter St #1,CHICAGO,IL,60607,489000,3,2.5,Near West Side,,,2005,28,,250,Active,,,http://www.redfin.com/IL/Chicago/924-S-Carpenter-St-60607/unit-1/home/12607322,MRED,10105858,N,Y,41.8699725,-87.6535254
MLS Listing,,Condo/Co-op,560 W Fulton St #506,CHICAGO,IL,60661,499000,2,2.0,Near West Side,,,2000,28,,464,Active,,,http://www.redfin.com/IL/Chicago/560-W-Fulton-St-60661/unit-506/home/12737643,MRED,10105855,N,Y,41.8870789,-87.6423726
MLS Listing,,Townhouse,939 N Kingsbury St,CHICAGO,IL,60610,489000,2,2.5,Near North Side,1300,,,28,376,300,Active,,,http://www.redfin.com/IL/Chicago/939-N-Kingsbury-St-60610/home/12625233,MRED,10105750,N,Y,41.899487,-87.6443377
MLS Listing,,Condo/Co-op,1720 N MARSHFIELD Ave #105,CHICAGO,IL,60622,495000,2,2.0,West Town,1873,,,28,264,342,Active,,,http://www.redfin.com/IL/Chicago/1720-N-Marshfield-Ave-60622/unit-105/home/13355473,MRED,10105629,N,Y,41.9130387,-87.6692921
MLS Listing,,Condo/Co-op,3930 N Southport Ave Unit 3S,CHICAGO,IL,60613,489000,3,2.0,Lake View,,,1999,29,,247,Active,,,http://www.redfin.com/IL/Chicago/3930-N-Southport-Ave-60613/unit-3S/home/12774485,MRED,10105317,N,Y,41.9534289,-87.6646247
MLS Listing,,Single Family Residential,518 E 44th Pl,CHICAGO,IL,60653,475000,5,3.5,Grand Boulevard,2208,2657,1883,30,215,,Active,,,http://www.redfin.com/IL/Chicago/518-E-44th-Pl-60653/home/13960738,MRED,10105214,N,Y,41.8141907,-87.6130949
MLS Listing,,Vacant Land,4822 N Natoma Ave,CHICAGO,IL,60656,500000,4,3.0,Norwood Park,,11062,,31,,,Active,,,http://www.redfin.com/IL/Chicago/4822-N-Natoma-Ave-60656/home/13504862,MRED,10104701,N,Y,41.9690671,-87.7931446
MLS Listing,,Condo/Co-op,2207 N Western Ave Unit 3A,CHICAGO,IL,60647,495000,3,2.0,Logan Square,,,2005,31,,230,Active,,,http://www.redfin.com/IL/Chicago/2207-N-Western-Ave-60647/unit-3A/home/12656943,MRED,10104462,N,Y,41.9220513,-87.6872733
MLS Listing,,Single Family Residential,4131 S Indiana Ave,CHICAGO,IL,60653,499900,5,3.5,Grand Boulevard,3400,8071,,31,147,,Active,,,http://www.redfin.com/IL/Chicago/4131-S-Indiana-Ave-60653/home/147419013,MRED,10103794,N,Y,41.819217,-87.621082
MLS Listing,,Single Family Residential,4023 N Odell Ave,NORRIDGE,IL,60706,499999,4,3.5,Norridge,3100,3750,2002,32,161,,Active,,,http://www.redfin.com/IL/Norridge/4023-N-Odell-Ave-60706/home/13552185,MRED,10103447,N,Y,41.953866,-87.810608
MLS Listing,,Condo/Co-op,2030 N Burling St #2,CHICAGO,IL,60614,499700,2,2.0,Lincoln Park,1500,,1998,32,333,158,Active,,,http://www.redfin.com/IL/Chicago/2030-N-Burling-St-60614/unit-2/home/12770708,MRED,10102832,N,Y,41.9191286,-87.6476797
MLS Listing,,Condo/Co-op,1300 N Artesian Ave Unit B,CHICAGO,IL,60622,495000,2,2.5,West Town,,,,32,,202,Active,,,http://www.redfin.com/IL/Chicago/1300-N-Artesian-Ave-60622/unit-B/home/146018031,MRED,10102715,N,Y,41.904841,-87.6882949
MLS Listing,,Multi-Family (2-4 Unit),3220 S LITUANICA Ave,CHICAGO,IL,60608,499000,4,2.5,Bridgeport,,10890,1885,32,,,Active,,,http://www.redfin.com/IL/Chicago/3220-S-Lituanica-Ave-60608/home/14075595,MRED,10102695,N,Y,41.8357453,-87.6488892
MLS Listing,,Condo/Co-op,1805 W ARMITAGE Ave #1,CHICAGO,IL,60622,485000,3,2.5,Logan Square,2300,,2001,32,211,225,Active,,,http://www.redfin.com/IL/Chicago/1805-W-Armitage-Ave-60622/unit-1/home/12740499,MRED,10102621,N,Y,41.9176085,-87.6730569
MLS Listing,,Multi-Family (5+ Unit),1908 N Keystone Ave,CHICAGO,IL,60639,499000,10,6.0,Hermosa,1104,3049,1893,33,452,,Active,,,http://www.redfin.com/IL/Chicago/1908-N-Keystone-Ave-60639/home/12794878,MRED,10102190,N,Y,41.9156447,-87.7279298
MLS Listing,,Condo/Co-op,1257 W Addison St #3,CHICAGO,IL,60613,485000,2,2.0,Lake View,,,1901,33,,207,Active,,,http://www.redfin.com/IL/Chicago/1257-W-Addison-St-60613/unit-3/home/22725898,MRED,10102093,N,Y,41.9468782,-87.6614075
MLS Listing,,Condo/Co-op,405 N WABASH Ave #4403,CHICAGO,IL,60611,499000,2,2.0,Near North Side,1250,,1977,33,399,990,Active,,,http://www.redfin.com/IL/Chicago/405-N-Wabash-Ave-60611/unit-4403/home/14099241,MRED,10101901,N,Y,41.889792,-87.6260503
MLS Listing,,Condo/Co-op,471 N Green St Unit 1N,CHICAGO,IL,60642,499900,2,2.0,West Town,,,1999,33,,213,Active,,,http://www.redfin.com/IL/Chicago/471-N-Green-St-60642/unit-1N/home/147385508,MRED,10101435,N,Y,41.890983,-87.648498
MLS Listing,,Multi-Family (2-4 Unit),5819 N Campbell Ave,CHICAGO,IL,60659,500000,4,3.0,West Ridge,,3720,1921,33,,,Active,,,http://www.redfin.com/IL/Chicago/5819-N-Campbell-Ave-60659/home/13518001,MRED,10101338,N,Y,41.9874352,-87.6917209
MLS Listing,,Single Family Residential,2145 W greenleaf Ave,CHICAGO,IL,60645,489000,4,1.5,West Ridge,2000,8772,1896,34,245,,Active,,,http://www.redfin.com/IL/Chicago/2145-W-Greenleaf-Ave-60645/home/13572299,MRED,10100585,N,Y,42.0097532,-87.6857907
MLS Listing,,Single Family Residential,3318 S Damen Ave,CHICAGO,IL,60608,499000,4,3.5,McKinley Park,3000,3072,2018,34,166,,Active,,,http://www.redfin.com/IL/Chicago/3318-S-Damen-Ave-60608/home/51671237,MRED,10100348,N,Y,41.8333938,-87.6756388
MLS Listing,,Condo/Co-op,120 W DELAWARE Pl Unit 4E,CHICAGO,IL,60610,499000,2,2.0,Near North Side,,,1881,35,,410,Active,,,http://www.redfin.com/IL/Chicago/120-W-Delaware-Pl-60610/unit-4E/home/14110602,MRED,10099462,N,Y,41.8994019,-87.6323096
MLS Listing,,Condo/Co-op,1458 N ARTESIAN Ave Unit PS3,CHICAGO,IL,60622,479000,2,2.0,West Town,1500,3000,2006,35,319,167,Active,,,http://www.redfin.com/IL/Chicago/1458-N-Artesian-Ave-60622/unit-PS3/home/18921542,MRED,10099409,N,Y,41.9082762,-87.68865
MLS Listing,,Condo/Co-op,910 S Michigan Ave #601,CHICAGO,IL,60605,475000,2,2.0,Loop,1777,,1911,35,267,946,Active,,,http://www.redfin.com/IL/Chicago/910-S-Michigan-Ave-60605/unit-601/home/12635631,MRED,10099390,N,Y,41.8701638,-87.6248467
MLS Listing,,Multi-Family (2-4 Unit),1351 N California Ave,CHICAGO,IL,60622,485000,6,2.0,West Town,,3920,,36,,,Active,,,http://www.redfin.com/IL/Chicago/1351-N-California-Ave-60622/home/144635268,MRED,10097349,N,Y,41.9062505,-87.6966452
MLS Listing,,Single Family Residential,4824 N Natoma Ave,CHICAGO,IL,60656,500000,3,3.0,Norwood Park,,11062,1911,37,,,Active,,,http://www.redfin.com/IL/Chicago/4824-N-Natoma-Ave-60656/home/13503086,MRED,10097911,N,Y,41.9691437,-87.7931062
MLS Listing,,Multi-Family (2-4 Unit),2342 W Altgeld St,CHICAGO,IL,60647,479000,5,2.0,Logan Square,,2185,,38,,,Active,,,http://www.redfin.com/IL/Chicago/2342-W-Altgeld-St-60647/home/13358393,MRED,10097769,N,Y,41.9265965,-87.686946
MLS Listing,,Single Family Residential,6329 W Patterson Ave,CHICAGO,IL,60634,499000,4,3.5,Dunning,2925,3101,2018,38,171,,Active,,,http://www.redfin.com/IL/Chicago/6329-W-Patterson-Ave-60634/home/13466575,MRED,10097738,N,Y,41.946331,-87.785019
MLS Listing,,Condo/Co-op,2806 W WELLINGTON Ave #2,CHICAGO,IL,60618,479900,3,2.5,Avondale,,3125,2014,38,,282,Active,,,http://www.redfin.com/IL/Chicago/2806-W-Wellington-Ave-60618/unit-2/home/145046807,MRED,10097513,N,Y,41.935937,-87.6979516
MLS Listing,,Multi-Family (2-4 Unit),5018 W Irving Park Rd,CHICAGO,IL,60641,475000,6,3.0,Portage Park,,,,38,,,Active,,,http://www.redfin.com/IL/Chicago/5018-W-Irving-Park-Rd-60641/unit-1/home/13477920,MRED,10097248,N,Y,41.9535819,-87.7530945
MLS Listing,,Multi-Family (2-4 Unit),4932 N Kenmore Ave,CHICAGO,IL,60640,485000,4,3.0,Uptown,,3484,1901,38,,,Active,,,http://www.redfin.com/IL/Chicago/4932-N-Kenmore-Ave-60640/home/13397714,MRED,10096868,N,Y,41.9725632,-87.6566295
MLS Listing,,Condo/Co-op,210 S Des Plaines St #1001,CHICAGO,IL,60661,499900,2,2.0,Near West Side,1200,,2004,38,417,578,Active,,,http://www.redfin.com/IL/Chicago/210-S-Desplaines-St-60661/unit-1001/home/12627053,MRED,10096802,N,Y,41.8789224,-87.6445288
MLS Listing,,Multi-Family (2-4 Unit),2657 N Ridgeway Ave,CHICAGO,IL,60647,485000,6,4.0,Logan Square,,2613,1903,38,,,Active,,,http://www.redfin.com/IL/Chicago/2657-N-Ridgeway-Ave-60647/unit-1/home/13446481,MRED,10096638,N,Y,41.9298799,-87.7204521
MLS Listing,,Condo/Co-op,934 N California Ave Unit 2-N,CHICAGO,IL,60622,499000,3,2.0,West Town,,,2018,39,,180,Active,,,http://www.redfin.com/IL/Chicago/934-N-California-Ave-60622/unit-2N/home/145742340,MRED,10096526,N,Y,41.8984809,-87.69714
MLS Listing,,Condo/Co-op,1013 W 16th St Unit 2W,CHICAGO,IL,60608,499000,3,2.5,Lower West Side,2200,,2006,39,227,229,Active,,,http://www.redfin.com/IL/Chicago/1013-W-16th-St-60608/unit-2W/home/18938166,MRED,10096474,N,Y,41.8596684,-87.6516373
MLS Listing,,Condo/Co-op,2302 N Hoyne Ave #2,CHICAGO,IL,60647,499888,2,2.0,Logan Square,,,2018,39,,175,Active,,,http://www.redfin.com/IL/Chicago/2302-N-Hoyne-Ave-60647/unit-2/home/146444748,MRED,10096421,N,Y,41.9229041,-87.6805531
MLS Listing,,Single Family Residential,7143 N Mankato Ave,CHICAGO,IL,60646,499000,3,3.0,Forest Glen,2000,5140,1952,39,250,,Active,,,http://www.redfin.com/IL/Chicago/7143-N-Mankato-Ave-60646/home/13592369,MRED,10096299,N,Y,42.0106181,-87.7788121
MLS Listing,,Single Family Residential,6781 N Oxford Ave,CHICAGO,IL,60631,475000,3,2.0,Edison Park,,6198,1932,39,,,Active,,,http://www.redfin.com/IL/Chicago/6781-N-Oxford-Ave-60631/home/13635154,MRED,10095603,N,Y,42.0038561,-87.8130315
MLS Listing,,Condo/Co-op,1802 S State St #304,CHICAGO,IL,60616,485000,3,2.0,Near South Side,,,2018,40,,146,Active,,,http://www.redfin.com/IL/Chicago/1802-S-State-St-60616/unit-304/home/147286606,MRED,10095282,N,Y,41.857599,-87.627658
MLS Listing,,Condo/Co-op,330 N Jefferson St #1701,CHICAGO,IL,60661,499000,2,2.0,Near West Side,1285,,2000,40,388,769,Active,,,http://www.redfin.com/IL/Chicago/330-N-Jefferson-St-60661/unit-1701/home/12753102,MRED,10094475,N,Y,41.8876964,-87.6436146
MLS Listing,,Single Family Residential,1753 W Devon Ave,CHICAGO,IL,60660,485000,3,2.0,Edgewater,,6198,1905,40,,,Active,,,http://www.redfin.com/IL/Chicago/1753-W-Devon-Ave-60660/home/13405973,MRED,10094430,N,Y,41.997835,-87.6740437
MLS Listing,,Multi-Family (2-4 Unit),2327 N RIDGEWAY Ave,CHICAGO,IL,60647,479999,5,2.0,Logan Square,,3750,1910,41,,,Active,,,http://www.redfin.com/IL/Chicago/2327-N-Ridgeway-Ave-60647/home/13420545,MRED,10094302,N,Y,41.9235802,-87.720244
MLS Listing,,Multi-Family (5+ Unit),1216 N Lockwood Ave,Chicago,IL,60651,499000,12,6.0,Austin,,3750,1922,41,,,Active,,,http://www.redfin.com/IL/Chicago/1216-N-Lockwood-Ave-60651/home/147268927,MRED,10094121,N,Y,41.9028798,-87.7584531
MLS Listing,,Condo/Co-op,901 W Madison St #408,CHICAGO,IL,60607,475000,2,2.0,Near West Side,1087,,2007,41,437,486,Active,,,http://www.redfin.com/IL/Chicago/901-W-Madison-St-60607/unit-408/home/26817969,MRED,10093320,N,Y,41.8814073,-87.650281
MLS Listing,,Multi-Family (2-4 Unit),2515 N Springfield Ave,CHICAGO,IL,60647,475999,6,3.0,Logan Square,,3484,1911,42,,,Active,,,http://www.redfin.com/IL/Chicago/Undisclosed-address-60647/home/13447272,MRED,10093082,N,Y,41.9268215,-87.7240426
MLS Listing,,Townhouse,2940 N Lakewood Ave #6,CHICAGO,IL,60657,499900,3,2.0,Lake View,1750,667,1993,42,286,100,Active,,,http://www.redfin.com/IL/Chicago/2940-N-Lakewood-Ave-60657/unit-6/home/13363977,MRED,10093003,N,Y,41.9356123,-87.6615748
MLS Listing,,Condo/Co-op,2800 N Lake Shore Dr #2701,CHICAGO,IL,60657,487650,2,2.0,Lake View,,,1967,43,,941,Active,,,http://www.redfin.com/IL/Chicago/2800-N-Lake-Shore-Dr-60657/unit-2701/home/13370599,MRED,10091798,N,Y,41.9332206,-87.6370699
MLS Listing,,Condo/Co-op,1000 W Adams St #804,CHICAGO,IL,60607,484000,2,2.0,Near West Side,1150,,2001,44,421,540,Active,,,http://www.redfin.com/IL/Chicago/1000-W-Adams-St-60607/unit-804/home/12725896,MRED,10091460,N,Y,41.8795264,-87.6524415
MLS Listing,,Condo/Co-op,565 W Quincy St #1710,CHICAGO,IL,60661,479900,2,2.0,Near West Side,963,,2009,45,498,564,Active,,,http://www.redfin.com/IL/Chicago/565-W-Quincy-St-60661/unit-1710/home/52635305,MRED,10090886,N,Y,41.8783464,-87.6420845
MLS Listing,,Single Family Residential,912 LYMAN Ave,OAK PARK,IL,60304,495000,5,3.0,Oak Park,1876,3149,1927,45,264,,Active,,,http://www.redfin.com/IL/Oak-Park/912-Lyman-Ave-60304/home/13250884,MRED,10090662,N,Y,41.8722016,-87.7765062
MLS Listing,,Single Family Residential,5931 N Sacramento Ave,CHICAGO,IL,60659,489900,5,3.0,West Ridge,1862,3720,1958,45,263,,Active,,,http://www.redfin.com/IL/Chicago/5931-N-Sacramento-Ave-60659/home/13519553,MRED,10090625,N,Y,41.9896138,-87.7039253
MLS Listing,,Townhouse,6506 W Imlay St,CHICAGO,IL,60631,495000,4,3.5,Norwood Park,2200,10625,2018,45,225,125,Active,,,http://www.redfin.com/IL/Chicago/6506-W-Imlay-St-60631/home/146786921,MRED,10090145,N,Y,41.9991735,-87.7899213
MLS Listing,,Townhouse,6502 W Imlay St,CHICAGO,IL,60631,485000,4,3.5,Norwood Park,2200,10625,2018,45,220,125,Active,,,http://www.redfin.com/IL/Chicago/6502-W-Imlay-St-60631/home/147153782,MRED,10090140,N,Y,41.9992258,-87.7898256
MLS Listing,,Townhouse,6500 W Imlay St,CHICAGO,IL,60631,475000,4,3.5,Norwood Park,2200,10625,2018,45,216,125,Active,,,http://www.redfin.com/IL/Chicago/6500-W-Imlay-Ave-60631/home/146731604,MRED,10090122,N,Y,41.9992519,-87.7897778
MLS Listing,,Multi-Family (2-4 Unit),6208 N Claremont Ave,CHICAGO,IL,60659,499000,6,3.0,West Ridge,,3920,1920,46,,,Active,,,http://www.redfin.com/IL/Chicago/6208-N-Claremont-Ave-60659/unit-2B/home/13407531,MRED,10089702,N,Y,41.9944189,-87.6888329
MLS Listing,,Condo/Co-op,2309 W Wabansia Ave #2,CHICAGO,IL,60647,485000,2,2.0,West Town,,,2004,46,,210,Active,,,http://www.redfin.com/IL/Chicago/2309-W-Wabansia-Ave-60647/unit-2/home/12663576,MRED,10089292,N,Y,41.9123378,-87.6852445
MLS Listing,,Multi-Family (5+ Unit),2640-44 W Pratt Blvd,CHICAGO,IL,60645,498900,4,2.0,West Ridge,,6000,1965,46,,,Active,,,http://www.redfin.com/IL/Chicago/2640-W-Pratt-Blvd-60645/home/13583797,MRED,10089239,N,Y,42.0050695,-87.6966531
MLS Listing,,Single Family Residential,6512 N KIMBALL Ave,LINCOLNWOOD,IL,60712,499900,3,3.5,Lincolnwood,,5083,1941,46,,,Active,,,http://www.redfin.com/IL/Lincolnwood/6512-N-Kimball-Ave-60712/home/13586748,MRED,10088982,N,Y,41.9995562,-87.7146062
MLS Listing,,Condo/Co-op,450 E Waterside Dr #1509,CHICAGO,IL,60601,489999,1,1.5,Loop,1024,1024,2007,46,479,633,Active,,,http://www.redfin.com/IL/Chicago/450-E-Waterside-Dr-60601/unit-1509/home/21806389,MRED,10088931,N,Y,41.887094,-87.6153778
MLS Listing,,Condo/Co-op,510 W Erie St #1101,CHICAGO,IL,60654,494800,2,2.0,Near North Side,,,2002,47,,1027,Active,,,http://www.redfin.com/IL/Chicago/510-W-Erie-St-60654/unit-1101/home/12670540,MRED,10088468,N,Y,41.8942821,-87.6422161
MLS Listing,,Single Family Residential,309 East Ave,PARK RIDGE,IL,60068,499000,3,2.0,Park Ridge,2152,6638,1939,47,232,,Active,,,http://www.redfin.com/IL/Park-Ridge/309-East-Ave-60068/home/13651407,MRED,10087989,N,Y,42.015474,-87.8204136
MLS Listing,,Condo/Co-op,175 E DELAWARE Pl #4711,CHICAGO,IL,60611,490000,2,2.0,Near North Side,1275,,1969,48,384,1075,Active,,,http://www.redfin.com/IL/Chicago/175-E-Delaware-Pl-60611/unit-4711/home/14120573,MRED,10086923,N,Y,41.8989444,-87.6227945
MLS Listing,,Condo/Co-op,1525 N Wicker Park Ave #2,CHICAGO,IL,60622,500000,3,2.0,West Town,1700,,,48,294,311,Active,,,http://www.redfin.com/IL/Chicago/1525-N-Wicker-Park-Ave-60622/unit-2/home/12616835,MRED,10086907,N,Y,41.9088662,-87.6766544
MLS Listing,,Condo/Co-op,1455 N Sandburg Ter Unit 2801-03,CHICAGO,IL,60610,475000,2,2.0,Near North Side,1536,,1967,49,309,1124,Active,,,http://www.redfin.com/IL/Chicago/1455-N-Sandburg-Ter-60610/unit-2801-03/home/145533920,MRED,10085944,N,Y,41.9088713,-87.6320402
MLS Listing,,Single Family Residential,7122 N Mankato Ave,CHICAGO,IL,60646,480000,3,3.0,Forest Glen,,5201,1947,49,,,Active,,,http://www.redfin.com/IL/Chicago/7122-N-Mankato-Ave-60646/home/13593435,MRED,10085576,N,Y,42.0106761,-87.7798113
MLS Listing,,Condo/Co-op,1527 N HUDSON Ave Unit 4N,CHICAGO,IL,60610,499999,2,2.0,Near North Side,1650,,2004,49,303,199,Active,,,http://www.redfin.com/IL/Chicago/1527-N-Hudson-Ave-60610/unit-4N/home/12627474,MRED,10085225,N,Y,41.9099999,-87.6394487
MLS Listing,,Condo/Co-op,512 N Mcclurg Ct #3610,CHICAGO,IL,60611,499900,2,2.0,Near North Side,1445,,2002,51,346,644,Active,,,http://www.redfin.com/IL/Chicago/512-N-McClurg-Ct-60611/unit-3610/home/12707606,MRED,10084454,N,Y,41.8915234,-87.6178142
MLS Listing,,Townhouse,20 W 15th St Unit C,CHICAGO,IL,60605,499000,3,2.0,Near South Side,1482,820,1990,52,337,107,Active,,,http://www.redfin.com/IL/Chicago/20-W-15th-St-60608/unit-C/home/14084792,MRED,10083738,N,Y,41.862101,-87.627532
MLS Listing,,Single Family Residential,2850 S Union Ave,CHICAGO,IL,60616,495000,4,3.0,Bridgeport,,3049,1968,52,,,Active,,,http://www.redfin.com/IL/Chicago/2850-S-Union-Ave-60616/home/14082142,MRED,10077500,N,Y,41.8420344,-87.6442197
MLS Listing,,Single Family Residential,3415 N Odell Ave,CHICAGO,IL,60634,499000,4,4.0,Dunning,2424,5728,1948,52,206,,Active,,,http://www.redfin.com/IL/Chicago/3415-N-Odell-Ave-60634/unit-1/home/13541406,MRED,10082797,N,Y,41.9419814,-87.8102377
MLS Listing,,Condo/Co-op,3001 N Damen Ave #4,CHICAGO,IL,60618,500000,2,2.0,North Center,1750,4125,,53,286,237,Active,,,http://www.redfin.com/IL/Chicago/3001-N-Damen-Ave-60618/unit-4/home/12668915,MRED,10082184,N,Y,41.9360683,-87.6778824
MLS Listing,,Single Family Residential,1820 N Fairfield Ave,CHICAGO,IL,60647,499999,3,2.0,Logan Square,900,3149,1894,54,556,,Active,,,http://www.redfin.com/IL/Chicago/1820-N-Fairfield-Ave-60647/home/13415690,MRED,10081326,N,Y,41.9145388,-87.6961487
MLS Listing,,Multi-Family (5+ Unit),10713 S Church St,CHICAGO,IL,60643,475000,72,36.0,Morgan Park,,10454,1924,54,,,Active,,,http://www.redfin.com/IL/Chicago/10713-S-Church-St-60643/home/13073449,MRED,10081176,N,Y,41.698952,-87.660119
MLS Listing,,Condo/Co-op,111 S Morgan St #905,CHICAGO,IL,60607,480000,2,2.0,Near West Side,1100,,2002,54,436,550,Active,,,http://www.redfin.com/IL/Chicago/111-S-Morgan-St-60607/unit-905/home/12666111,MRED,09754440,N,Y,41.8796759,-87.6516624
MLS Listing,,Condo/Co-op,420 E Waterside Dr #1403,CHICAGO,IL,60601,500000,2,2.0,Loop,1117,,2007,54,448,627,Active,,,http://www.redfin.com/IL/Chicago/420-E-Waterside-Dr-60601/unit-1403/home/18935351,MRED,10080981,N,Y,41.8871935,-87.6161158
MLS Listing,,Multi-Family (2-4 Unit),6033 W Matson Ave,CHICAGO,IL,60646,499900,7,3.0,Norwood Park,,3920,1921,54,,,Active,,,http://www.redfin.com/IL/Chicago/6033-W-Matson-Ave-60646/home/13511585,MRED,10080713,N,Y,41.9922143,-87.778892
MLS Listing,,Single Family Residential,10918 S Bell Ave,CHICAGO,IL,60643,499900,4,2.5,Morgan Park,3100,31228,1900,54,161,,Active,,,http://www.redfin.com/IL/Chicago/10918-S-Bell-Ave-60643/home/13070238,MRED,10080351,N,Y,41.6948121,-87.6765667
MLS Listing,,Condo/Co-op,1358 W Belmont Ave #302,CHICAGO,IL,60657,495000,3,2.0,Lake View,,,2008,54,,325,Active,,,http://www.redfin.com/IL/Chicago/1358-W-Belmont-Ave-60657/unit-302/home/17366057,MRED,10080215,N,Y,41.9400332,-87.6633966
MLS Listing,,Single Family Residential,5714 W Pensacola Ave,CHICAGO,IL,60634,489900,7,3.0,Portage Park,3200,3750,1923,55,153,,Active,,,http://www.redfin.com/IL/Chicago/5714-W-Pensacola-Ave-60634/home/13473614,MRED,10079623,N,Y,41.9597255,-87.770395
MLS Listing,,Condo/Co-op,1442 N Mohawk St #1,CHICAGO,IL,60610,489900,2,2.0,Near North Side,,,2001,55,,227,Active,,,http://www.redfin.com/IL/Chicago/1442-N-Mohawk-St-60610/unit-1/home/12769801,MRED,10079328,N,Y,41.9087858,-87.6425076
MLS Listing,,Condo/Co-op,1260 W WASHINGTON Blvd #508,CHICAGO,IL,60607,499900,2,2.0,Near West Side,,,2002,56,,401,Active,,,http://www.redfin.com/IL/Chicago/1260-W-Washington-Blvd-60607/unit-508/home/12649515,MRED,10077947,N,Y,41.8832035,-87.6591035
MLS Listing,,Condo/Co-op,1555 N Dearborn Pkwy Unit 17AB,CHICAGO,IL,60610,485000,2,2.0,Near North Side,1280,,1968,57,379,1392,Active,,,http://www.redfin.com/IL/Chicago/1555-N-Dearborn-Pkwy-60610/unit-17AB/home/14113730,MRED,10077158,N,Y,41.911056,-87.629802
MLS Listing,,Single Family Residential,3415 N Kilpatrick Ave,CHICAGO,IL,60641,487000,5,4.0,Portage Park,2872,4125,,59,170,,Active,,,http://www.redfin.com/IL/Chicago/3415-N-Kilpatrick-Ave-60641/home/12562788,MRED,10076239,N,Y,41.9429801,-87.7435957
MLS Listing,,Condo/Co-op,1200 W Monroe St #914,CHICAGO,IL,60607,500000,3,2.0,Near West Side,,,2004,59,,565,Active,,,http://www.redfin.com/IL/Chicago/1200-W-Monroe-St-60607/unit-914/home/12646012,MRED,10076025,N,Y,41.8810641,-87.6574278
MLS Listing,,Single Family Residential,6303 N Melvina Ave,CHICAGO,IL,60646,499900,5,3.0,Norwood Park,3766,5850,1934,59,133,,Active,,,http://www.redfin.com/IL/Chicago/6303-N-Melvina-Ave-60646/home/13511315,MRED,10075909,N,Y,41.995216,-87.7825014
MLS Listing,,Single Family Residential,5863 N Kingsdale Ave,CHICAGO,IL,60646,479900,5,3.5,Forest Glen,2430,3746,1953,59,197,,Active,,,http://www.redfin.com/IL/Chicago/5863-N-Kingsdale-Ave-60646/home/13514760,MRED,10075803,N,Y,41.9863799,-87.7439034
MLS Listing,,Condo/Co-op,921 N La Salle Dr Unit 11-12,CHICAGO,IL,60610,500000,2,2.0,Near North Side,1400,,1923,60,357,414,Active,,,http://www.redfin.com/IL/Chicago/921-N-LaSalle-Dr-60610/unit-11-12/home/146984224,MRED,10074364,N,Y,41.8996464,-87.6324619
MLS Listing,,Condo/Co-op,1660 N LaSalle Dr #1702,CHICAGO,IL,60614,500000,2,2.0,Lincoln Park,1076,,1971,60,465,810,Active,,,http://www.redfin.com/IL/Chicago/1660-N-LaSalle-Dr-60614/unit-1702/home/146984045,MRED,10074307,N,Y,41.912668,-87.6334836
MLS Listing,,Condo/Co-op,2108 N CALIFORNIA Ave Unit 1F,CHICAGO,IL,60647,480000,3,2.5,Logan Square,,,2007,60,,238,Active,,,http://www.redfin.com/IL/Chicago/2108-N-California-Ave-60647/unit-1F/home/26806444,MRED,10074218,N,Y,41.9198853,-87.6977302
MLS Listing,,Condo/Co-op,860 N LAKE SHORE Dr Unit 19J,CHICAGO,IL,60611,485000,3,2.0,Near North Side,1600,,1951,60,303,2409,Active,,,http://www.redfin.com/IL/Chicago/860-N-Lake-Shore-Dr-60611/unit-19J/home/40106229,MRED,10073853,N,Y,41.89865,-87.6189079
MLS Listing,,Multi-Family (2-4 Unit),4948 N ALBANY Ave,CHICAGO,IL,60625,499000,7,3.0,Albany Park,,3920,1918,61,,,Active,,,http://www.redfin.com/IL/Chicago/4948-N-Albany-Ave-60625/home/13489797,MRED,10073246,N,Y,41.9717466,-87.7064273
MLS Listing,,Condo/Co-op,401 N WABASH Ave Unit 77C,CHICAGO,IL,60611,500000,0,1.0,Near North Side,713,,2008,61,701,712,Active,,,http://www.redfin.com/IL/Chicago/401-N-Wabash-Ave-60611/unit-77C/home/40378951,MRED,10072908,N,Y,41.8888031,-87.626312
MLS Listing,,Single Family Residential,2224 W Farragut Ave,CHICAGO,IL,60625,499000,2,1.5,Lincoln Square,1656,4687,1903,61,301,,Active,,,http://www.redfin.com/IL/Chicago/2224-W-Farragut-Ave-60625/home/13405932,MRED,10072714,N,Y,41.977054,-87.6854056
MLS Listing,,Condo/Co-op,1111 S State St #507,CHICAGO,IL,60605,490000,2,2.0,Loop,1550,,2005,61,316,1040,Active,,,http://www.redfin.com/IL/Chicago/1111-S-State-St-60605/unit-507/home/145047418,MRED,10072659,N,Y,41.8685021,-87.6270061
MLS Listing,,Condo/Co-op,515 W Belmont Ave #2,CHICAGO,IL,60657,485000,3,2.0,Lake View,1900,,1920,61,255,375,Active,,,http://www.redfin.com/IL/Chicago/515-W-Belmont-Ave-60657/unit-2/home/13372924,MRED,10072632,N,Y,41.939771,-87.64273
MLS Listing,,Condo/Co-op,1120 N Lake Shore Dr Unit 9C,CHICAGO,IL,60611,499000,2,2.0,Near North Side,1500,,1924,61,333,2402,Active,,,http://www.redfin.com/IL/Chicago/1120-N-Lake-Shore-Dr-60611/unit-9C/home/28872934,MRED,10072278,N,Y,41.9030601,-87.6250974
MLS Listing,,Condo/Co-op,240 E Illinois St #1707,CHICAGO,IL,60611,490000,1,1.5,Near North Side,1071,,2007,61,458,761,Active,,,http://www.redfin.com/IL/Chicago/240-E-Illinois-St-60611/unit-1707/home/17058385,MRED,10072210,N,Y,41.891402,-87.6213118
MLS Listing,,Townhouse,1246 S Federal St Unit B,CHICAGO,IL,60605,485000,2,1.5,Near South Side,1243,,1994,62,390,275,Active,,,http://www.redfin.com/IL/Chicago/1246-S-Federal-St-60605/unit-B/home/14084562,MRED,10071988,N,Y,41.865975,-87.6300459
MLS Listing,,Condo/Co-op,333 S Des Plaines St #502,Chicago,IL,60661,499900,2,2.0,Near West Side,1350,,1920,62,370,477,Active,,,http://www.redfin.com/IL/Chicago/333-S-Desplaines-St-60661/unit-502/home/12646590,MRED,10071817,N,Y,41.8771135,-87.6435483
MLS Listing,,Single Family Residential,4509 N Mulligan Ave,CHICAGO,IL,60630,499900,4,3.0,Portage Park,2600,4064,,62,192,,Active,,,http://www.redfin.com/IL/Chicago/4509-N-Mulligan-Ave-60630/home/13476594,MRED,10071724,N,Y,41.9623656,-87.7853792
MLS Listing,,Condo/Co-op,221 E Walton Pl Unit 5C,CHICAGO,IL,60611,499000,3,2.5,Near North Side,1800,,1983,62,277,1460,Active,,,http://www.redfin.com/IL/Chicago/221-E-Walton-Pl-60611/unit-5C/home/14121095,MRED,10071638,N,Y,41.8997584,-87.6209711
MLS Listing,,Condo/Co-op,1526 W Jackson Blvd #1,CHICAGO,IL,60607,500000,2,2.5,Near West Side,,,,62,,296,Active,,,http://www.redfin.com/IL/Chicago/1526-W-Jackson-Blvd-60607/unit-1/home/12658481,MRED,10070766,N,Y,41.877997,-87.665507
MLS Listing,,Townhouse,3203 N Rockwell St,CHICAGO,IL,60618,480000,3,2.5,Avondale,,,2000,62,,383,Active,,,http://www.redfin.com/IL/Chicago/3203-N-Rockwell-St-60618/home/12703058,MRED,10070691,N,Y,41.93967,-87.693624
MLS Listing,,Condo/Co-op,1417 W Chicago Ave #2,CHICAGO,IL,60642,495000,3,2.0,West Town,1700,,2006,62,291,304,Active,,,http://www.redfin.com/IL/Chicago/1417-W-Chicago-Ave-60642/unit-2/home/12604077,MRED,10070644,N,Y,41.895855,-87.6630397
MLS Listing,,Condo/Co-op,942 N Wood St #1,CHICAGO,IL,60622,475000,3,3.0,West Town,2000,,,62,238,267,Active,,,http://www.redfin.com/IL/Chicago/942-N-Wood-St-60622/unit-1/home/26812732,MRED,10070432,N,Y,41.8990513,-87.6725806
MLS Listing,,Multi-Family (2-4 Unit),1721 N Artesian Ave,CHICAGO,IL,60647,475000,4,2.0,West Town,,2613,1879,63,,,Active,,,http://www.redfin.com/IL/Chicago/1721-N-Artesian-Ave-60647/home/13414961,MRED,10070104,N,Y,41.9128301,-87.6882168
MLS Listing,,Condo/Co-op,1030 N STATE St Unit 41B,CHICAGO,IL,60610,499000,2,2.0,Near North Side,1000,,1971,65,499,658,Active,,,http://www.redfin.com/IL/Chicago/1030-N-State-St-60610/unit-41B/home/14110525,MRED,10065272,N,Y,41.9012852,-87.6289091
MLS Listing,,Condo/Co-op,1400 S Michigan Ave #1104,CHICAGO,IL,60605,479900,2,2.0,Near South Side,1260,,2008,66,381,462,Active,,,http://www.redfin.com/IL/Chicago/1400-S-Michigan-Ave-60605/unit-1104/home/52638747,MRED,10068395,N,Y,41.8638738,-87.6244611
MLS Listing,,Townhouse,3241 S Stewart Ave,CHICAGO,IL,60616,499000,4,3.5,Armour Square,2400,1040,2018,66,208,150,Active,,,http://www.redfin.com/IL/Chicago/3241-S-Stewart-Ave-60616/home/146951651,MRED,10068376,N,Y,41.8351679,-87.6356706
MLS Listing,,Condo/Co-op,680 N Lake Shore Dr #1615,CHICAGO,IL,60611,489000,2,2.0,Near North Side,1750,,1926,67,279,1064,Active,,,http://www.redfin.com/IL/Chicago/680-N-Lake-Shore-Dr-60611/unit-1615/home/14097736,MRED,10067660,N,Y,41.8946724,-87.6167162
MLS Listing,,Multi-Family (2-4 Unit),715 S Western Ave,CHICAGO,IL,60612,499000,3,1.5,Near West Side,,2613,1898,68,,,Active,,,http://www.redfin.com/IL/Chicago/715-S-Western-Ave-60612/home/14088122,MRED,10066468,N,Y,41.8725897,-87.6859448
MLS Listing,,Condo/Co-op,848 N Marshfield Ave #1,CHICAGO,IL,60622,489900,3,2.5,West Town,1500,,1999,69,327,194,Active,,,http://www.redfin.com/IL/Chicago/848-N-Marshfield-Ave-60622/unit-1/home/12767742,MRED,10065706,N,Y,41.8974392,-87.6688646
MLS Listing,,Single Family Residential,2920 W Greenleaf Ave,CHICAGO,IL,60645,499900,5,3.0,West Ridge,,3937,1934,70,,,Active,,,http://www.redfin.com/IL/Chicago/2920-W-Greenleaf-Ave-60645/home/13586384,MRED,10064652,N,Y,42.0095184,-87.7030399
MLS Listing,,Single Family Residential,3656 N Artesian Ave,CHICAGO,IL,60618,499000,3,2.0,North Center,,4504,1926,70,,,Active,,,http://www.redfin.com/IL/Chicago/3656-N-Artesian-Ave-60618/home/13452728,MRED,10064339,N,Y,41.9483811,-87.6898341
MLS Listing,,Condo/Co-op,1255 S State St #1903,CHICAGO,IL,60605,489800,3,2.0,Near South Side,1600,1600,2007,70,306,1019,Active,,,http://www.redfin.com/IL/Chicago/1255-S-State-St-60605/unit-1903/home/26819624,MRED,10064298,N,Y,41.8661848,-87.6269452
MLS Listing,,Condo/Co-op,2241 W WABANSIA Ave #202,CHICAGO,IL,60647,485000,2,2.0,West Town,1428,,2005,70,340,354,Active,,,http://www.redfin.com/IL/Chicago/2241-W-Wabansia-Ave-60647/unit-202/home/12589978,MRED,10064016,N,Y,41.9123519,-87.6843417
MLS Listing,,Multi-Family (5+ Unit),936 E 80th St,CHICAGO,IL,60619,475000,15,12.0,Chatham,,4625,1925,70,,,Active,,,http://www.redfin.com/IL/Chicago/936-E-80th-St-60619/home/13223545,MRED,10063706,N,Y,41.7496176,-87.6011665
MLS Listing,,Condo/Co-op,1875 N Sheffield Ave Unit B,CHICAGO,IL,60614,499900,2,2.5,Lincoln Park,1600,,1890,73,312,133,Active,,,http://www.redfin.com/IL/Chicago/1875-N-Sheffield-Ave-60614/unit-B/home/146858252,MRED,10062640,N,Y,41.9158779,-87.6530842
MLS Listing,,Single Family Residential,5636 W Grace St,CHICAGO,IL,60634,475000,4,4.0,Portage Park,3700,3937,1912,73,128,,Active,,,http://www.redfin.com/IL/Chicago/5636-W-Grace-St-60634/home/13466421,MRED,10061895,N,Y,41.9496794,-87.7684538
MLS Listing,,Single Family Residential,2511 W Fargo Ave,CHICAGO,IL,60645,498000,4,3.5,West Ridge,3200,7500,1929,74,156,,Active,,,http://www.redfin.com/IL/Chicago/2511-W-Fargo-Ave-60645/home/13603104,MRED,10061026,N,Y,42.0165125,-87.6930685
MLS Listing,,Single Family Residential,6018 N JERSEY Ave,CHICAGO,IL,60659,479000,4,2.0,North Park,,524898000,1952,75,,,Active,,,http://www.redfin.com/IL/Chicago/6018-N-Jersey-Ave-60659/home/145723214,MRED,10060203,N,Y,41.9908017,-87.71111
MLS Listing,,Single Family Residential,3637 N Francisco Ave,CHICAGO,IL,60618,479900,5,2.0,Irving Park,1800,3750,1935,75,267,,Active,,,http://www.redfin.com/IL/Chicago/3637-N-Francisco-Ave-60618/home/13452067,MRED,10060030,N,Y,41.9477653,-87.700246
MLS Listing,,Condo/Co-op,179 E LAKE SHORE Dr #302,CHICAGO,IL,60611,499000,1,1.0,Near North Side,875,,1928,75,570,2048,Active,,,http://www.redfin.com/IL/Chicago/179-E-Lake-Shore-Dr-60611/unit-302/home/13040529,MRED,10059946,N,Y,41.9006308,-87.6226581
MLS Listing,,Single Family Residential,2838 W Summerdale Ave,CHICAGO,IL,60625,489000,5,4.5,Lincoln Square,2600,3750,1951,77,188,,Active,,,http://www.redfin.com/IL/Chicago/2838-W-Summerdale-Ave-60625/home/13491043,MRED,10057369,N,Y,41.9787518,-87.7006146
MLS Listing,,Condo/Co-op,474 N Lake Shore Dr #2008,CHICAGO,IL,60611,499000,2,2.0,Near North Side,1257,,1991,77,397,873,Active,,,http://www.redfin.com/IL/Chicago/474-N-Lake-Shore-Dr-60611/unit-2008/home/12591225,MRED,10057178,N,Y,41.8908091,-87.6145882
MLS Listing,,Single Family Residential,4701 S Woodlawn Ave,CHICAGO,IL,60615,475000,4,2.5,Kenwood,2000,2617,1991,77,238,147,Active,,,http://www.redfin.com/IL/Chicago/4701-S-Woodlawn-Ave-60615/unit-F/home/13951379,MRED,10056905,N,Y,41.8093807,-87.5959463
MLS Listing,,Multi-Family (2-4 Unit),1652 W Hollywood Ave,CHICAGO,IL,60660,499000,5,2.5,Edgewater,,,1899,80,,,Active,,,http://www.redfin.com/IL/Chicago/1652-W-Hollywood-Ave-60660/home/13405084,MRED,10054816,N,Y,41.9852956,-87.6719251
MLS Listing,,Condo/Co-op,333 S Des Plaines St #315,CHICAGO,IL,60661,475000,2,2.0,Near West Side,,,,81,,583,Active,,,http://www.redfin.com/IL/Chicago/333-S-Desplaines-St-60661/unit-315/home/12637825,MRED,10054385,N,Y,41.8771135,-87.6435483
MLS Listing,,Townhouse,5459 S University Ave,CHICAGO,IL,60615,499000,4,2.0,Hyde Park,2300,,,81,217,,Active,,,http://www.redfin.com/IL/Chicago/Undisclosed-address-60615/home/146729642,MRED,10054079,N,Y,41.7962839,-87.5977931
MLS Listing,,Townhouse,706 W Evergreen Ave,CHICAGO,IL,60610,485000,2,2.5,Near North Side,1800,,2007,83,269,486,Active,,,http://www.redfin.com/IL/Chicago/706-W-Evergreen-Ave-60610/home/12697051,MRED,10051763,N,Y,41.906891,-87.64681
MLS Listing,,Multi-Family (2-4 Unit),2941 N AUSTIN Ave,CHICAGO,IL,60634,495000,4,2.0,Belmont Cragin,,3750,,86,,,Active,,,http://www.redfin.com/IL/Chicago/2941-N-Austin-Ave-60634/home/13438780,MRED,10049337,N,Y,41.934159,-87.7759297
MLS Listing,,Multi-Family (2-4 Unit),2059 W Ohio St,CHICAGO,IL,60612,500000,5,2.0,West Town,,1306,1888,88,,,Active,,,http://www.redfin.com/IL/Chicago/2059-W-Ohio-St-60612/home/14105565,MRED,10047438,N,Y,41.8920708,-87.6792051
MLS Listing,,Single Family Residential,10526 S Talman Ave,CHICAGO,IL,60655,479000,4,2.5,Beverly,2100,3125,1952,88,228,,Active,,,http://www.redfin.com/IL/Chicago/10526-S-Talman-Ave-60655/home/13156761,MRED,10046718,N,Y,41.7018206,-87.6885056
MLS Listing,,Condo/Co-op,195 N HARBOR Dr #205,CHICAGO,IL,60601,489000,2,2.0,Loop,1227,,1991,88,399,542,Active,,,http://www.redfin.com/IL/Chicago/195-N-Harbor-Dr-60601/unit-205/home/14093180,MRED,10046394,N,Y,41.8855212,-87.6146956
MLS Listing,,Condo/Co-op,400 N LASALLE St #1602,CHICAGO,IL,60654,500000,2,2.0,Near North Side,1271,,2003,89,393,874,Active,,,http://www.redfin.com/IL/Chicago/400-N-LaSalle-Dr-60654/unit-1602/home/12625211,MRED,10044960,N,Y,41.8895851,-87.6330529
MLS Listing,,Condo/Co-op,659 W RANDOLPH St #1720,CHICAGO,IL,60661,495900,2,2.0,Near West Side,,,2008,90,,748,Active,,,http://www.redfin.com/IL/Chicago/659-W-Randolph-St-60661/unit-1720/home/39644777,MRED,10044682,N,Y,41.8840049,-87.6447048
MLS Listing,,Multi-Family (2-4 Unit),2453 N ASHLAND Ave,CHICAGO,IL,60614,475000,5,3.0,Lincoln Park,,1992,1935,90,,,Active,,,http://www.redfin.com/IL/Chicago/2453-N-Ashland-Ave-60614/home/13361361,MRED,10044427,N,Y,41.9267069,-87.6679283
MLS Listing,,Condo/Co-op,818 N Dearborn St Unit 1F,CHICAGO,IL,60610,475000,2,2.0,Near North Side,1100,7500,1920,90,432,359,Active,,,http://www.redfin.com/IL/Chicago/818-N-Dearborn-St-60610/unit-1F/home/14110593,MRED,10044249,N,Y,41.897279,-87.6302369
MLS Listing,,Condo/Co-op,195 N HARBOR Dr #4101,Chicago,IL,60601,499000,2,2.0,Loop,1139,,1991,91,438,848,Active,,,http://www.redfin.com/IL/Chicago/195-N-Harbor-Dr-60601/unit-4101/home/14092742,MRED,10042745,N,Y,41.8855212,-87.6146956
MLS Listing,,Multi-Family (2-4 Unit),2930 N 72nd Ct,ELMWOOD PARK,IL,60707,499999,7,5.0,Elmwood Park,,3750,1968,92,,,Active,,,http://www.redfin.com/IL/Elmwood-Park/2930-N-72nd-Ct-60707/home/13537797,MRED,10042017,N,Y,41.9338071,-87.808087
MLS Listing,,Multi-Family (2-4 Unit),4028 N Lavergne Ave,CHICAGO,IL,60641,499900,4,3.0,Portage Park,,3920,1913,93,,,Active,,,http://www.redfin.com/IL/Chicago/4028-N-Lavergne-Ave-60641/unit-I/home/13476646,MRED,10041455,N,Y,41.9542691,-87.7525947
MLS Listing,,Condo/Co-op,1362 N Evergreen Ave #2,CHICAGO,IL,60642,475000,2,2.0,West Town,,,2018,95,,175,Active,,,http://www.redfin.com/IL/Chicago/1362-W-Evergreen-Ave-60642/unit-2/home/146450521,MRED,10039285,N,Y,41.9063761,-87.6620526
MLS Listing,,Single Family Residential,5352 S Drexel Ave,CHICAGO,IL,60615,489900,4,2.5,Hyde Park,2065,2687,1903,95,237,,Active,,,http://www.redfin.com/IL/Chicago/5352-S-Drexel-Ave-60615/unit-1/home/13948496,MRED,10038772,N,Y,41.7970891,-87.6042369
MLS Listing,,Condo/Co-op,2222 W BELMONT Ave #402,CHICAGO,IL,60618,500000,3,2.0,North Center,,,2005,98,,305,Active,,,http://www.redfin.com/IL/Chicago/2222-W-Belmont-Ave-60618/unit-402/home/12613111,MRED,10035455,N,Y,41.9397749,-87.6841717
MLS Listing,,Condo/Co-op,500 W SUPERIOR St #813,CHICAGO,IL,60654,499000,2,2.0,Near North Side,1220,,1971,98,409,940,Active,,,http://www.redfin.com/IL/Chicago/500-W-Superior-St-60654/unit-813/home/12625220,MRED,10035124,N,Y,41.8957754,-87.6422178
MLS Listing,,Condo/Co-op,845 N Kingsbury St #708,CHICAGO,IL,60610,485000,2,2.0,Near North Side,1473,,2006,103,329,809,Active,,,http://www.redfin.com/IL/Chicago/845-N-Kingsbury-St-60610/unit-708/home/26811994,MRED,10029778,N,Y,41.8985207,-87.643415
MLS Listing,,Condo/Co-op,1445 N State Pkwy #1404,CHICAGO,IL,60610,500000,3,3.0,Near North Side,,,,104,,1777,Active,,,http://www.redfin.com/IL/Chicago/1445-N-State-Pkwy-60610/unit-1404/home/14125481,MRED,10029263,N,Y,41.9092175,-87.628423
MLS Listing,,Condo/Co-op,2009 W Belmont Ave #4,CHICAGO,IL,60618,489900,3,2.0,North Center,1850,,2004,104,265,235,Active,,,http://www.redfin.com/IL/Chicago/2009-W-Belmont-Ave-60618/unit-4/home/12667182,MRED,10029096,N,Y,41.9392949,-87.6787991
MLS Listing,,Condo/Co-op,1455 W Thomas St Unit 2E,CHICAGO,IL,60642,499000,3,2.0,West Town,1600,,2005,104,312,246,Active,,,http://www.redfin.com/IL/Chicago/1455-W-Thomas-St-60642/unit-2E/home/12621194,MRED,10028795,N,Y,41.901308,-87.664677
MLS Listing,,Multi-Family (2-4 Unit),7709 S Cornell Ave,CHICAGO,IL,60649,489000,11,4.0,South Shore,,3240,,104,,,Active,,,http://www.redfin.com/IL/Chicago/7709-S-Cornell-Ave-60649/unit-1/home/13924312,MRED,10028272,N,Y,41.7547564,-87.5841884
MLS Listing,,Single Family Residential,4503 N Western Ave,CHICAGO,IL,60625,499000,3,1.5,Lincoln Square,,2648,1900,105,,,Active,,,http://www.redfin.com/IL/Chicago/4503-N-Western-Ave-60625/home/13392456,MRED,10027621,N,Y,41.9633464,-87.6884767
MLS Listing,,Multi-Family (2-4 Unit),1725 S Desplaines St,CHICAGO,IL,60616,500000,6,2.0,Lower West Side,,2500,,105,,,Active,,,http://www.redfin.com/IL/Chicago/1725-S-Desplaines-St-60616/home/14084489,MRED,10027203,N,Y,41.858412,-87.6427164
MLS Listing,,Condo/Co-op,600 N DEARBORN St #1908,CHICAGO,IL,60654,495000,2,2.0,Near North Side,1420,,2001,111,349,958,Active,,,http://www.redfin.com/IL/Chicago/600-N-Dearborn-St-60654/unit-1908/home/12695739,MRED,10020790,N,Y,41.8926939,-87.6303212
MLS Listing,,Single Family Residential,626 S Humphrey Ave,OAK PARK,IL,60304,492000,4,2.0,Oak Park,2623,4687,1914,112,188,,Active,,,http://www.redfin.com/IL/Oak-Park/626-S-Humphrey-Ave-60304/home/13252083,MRED,10019980,N,Y,41.8771865,-87.7756223
MLS Listing,,Single Family Residential,6125 S Neenah Ave,Chicago,IL,60638,499900,4,3.0,Clearing,3000,4687,2016,112,167,,Active,,,http://www.redfin.com/IL/Chicago/6125-S-Neenah-Ave-60638/home/13998392,MRED,10019736,N,Y,41.7805369,-87.7847685
MLS Listing,,Condo/Co-op,411 W ONTARIO St #310,CHICAGO,IL,60654,499000,2,2.0,Near North Side,,,1910,112,,637,Active,,,http://www.redfin.com/IL/Chicago/411-W-Ontario-St-60654/unit-310/home/14101553,MRED,10019443,N,Y,41.8928504,-87.6397404
MLS Listing,,Multi-Family (5+ Unit),2733 N Oak Park Ave,CHICAGO,IL,60707,480000,6,6.0,Montclare,3600,3437,1904,115,133,,Active,,,http://www.redfin.com/IL/Chicago/2733-N-Oak-Park-Ave-60707/home/13432611,MRED,10017845,N,Y,41.930036,-87.7951807
MLS Listing,,Condo/Co-op,201 E Chestnut St Unit 11B,CHICAGO,IL,60611,475000,2,2.0,Near North Side,1600,,1961,115,297,780,Active,,,http://www.redfin.com/IL/Chicago/201-E-Chestnut-St-60611/unit-11B/home/14117055,MRED,10017368,N,Y,41.898127,-87.621595
MLS Listing,,Condo/Co-op,340 W SUPERIOR St #1601,CHICAGO,IL,60654,480000,2,2.0,Near North Side,1200,,2001,115,400,768,Active,,,http://www.redfin.com/IL/Chicago/340-W-Superior-St-60654/unit-1601/home/12680922,MRED,10017253,N,Y,41.8958399,-87.6375838
MLS Listing,,Condo/Co-op,310 S Michigan Ave #2004,CHICAGO,IL,60604,489900,2,2.0,Loop,1200,,1924,115,408,1119,Active,,,http://www.redfin.com/IL/Chicago/310-S-Michigan-Ave-60604/unit-2004/home/45513306,MRED,10016681,N,Y,41.8778408,-87.6248467
MLS Listing,,Condo/Co-op,450 E Waterside Dr #1410,CHICAGO,IL,60601,475000,1,1.5,Loop,1136,,2007,116,418,556,Active,,,http://www.redfin.com/IL/Chicago/450-E-Waterside-Dr-60601/unit-1410/home/22835276,MRED,10015988,N,Y,41.8869115,-87.6144918
MLS Listing,,Multi-Family (2-4 Unit),2014 W Grand Ave,CHICAGO,IL,60612,499900,5,2.0,West Town,,2178,1887,117,,,Active,,,http://www.redfin.com/IL/Chicago/2014-W-Grand-Ave-60612/home/14105746,MRED,10014521,N,Y,41.8910232,-87.67761
MLS Listing,,Multi-Family (2-4 Unit),7027 N Ridge Blvd,CHICAGO,IL,60645,484411,6,2.0,Rogers Park,,4080,1919,118,,,Active,,,http://www.redfin.com/IL/Chicago/7027-N-Ridge-Blvd-60645/unit-2/home/13571105,MRED,10013442,N,Y,42.0096727,-87.6817855
MLS Listing,,Vacant Land,10634 S Walden Pkwy,CHICAGO,IL,60643,499000,,,Beverly,,6534,,118,,,Active,,,http://www.redfin.com/IL/Chicago/10634-S-Walden-Pkwy-60643/home/22611311,MRED,10013167,N,Y,41.699951,-87.670261
MLS Listing,,Condo/Co-op,2656 W Augusta Blvd #1,CHICAGO,IL,60622,478999,3,2.5,West Town,,,2017,118,,190,Active,,,http://www.redfin.com/IL/Chicago/2656-W-Augusta-Blvd-60622/unit-1/home/144234974,MRED,10012662,N,Y,41.8992993,-87.6940078
MLS Listing,,Multi-Family (2-4 Unit),3066 N Haussen Ct,CHICAGO,IL,60618,499000,7,3.0,Avondale,,3920,1906,119,,,Active,,,http://www.redfin.com/IL/Chicago/3066-N-Haussen-Ct-60618/unit-1/home/13449334,MRED,10011893,N,Y,41.936971,-87.7233594
MLS Listing,,Single Family Residential,6229 N La Crosse Ave,CHICAGO,IL,60646,499000,4,3.0,Forest Glen,,5083,1951,119,,,Active,,,http://www.redfin.com/IL/Chicago/6229-N-La-Crosse-Ave-60646/home/13512204,MRED,10011783,N,Y,41.9944556,-87.7492876
MLS Listing,,Condo/Co-op,240 E ILLINOIS St #2107,CHICAGO,IL,60611,499000,1,1.5,Near North Side,1020,,2008,119,489,635,Active,,,http://www.redfin.com/IL/Chicago/240-E-Illinois-St-60611/unit-2107/home/21814426,MRED,10011454,N,Y,41.891402,-87.6213118
MLS Listing,,Multi-Family (2-4 Unit),5736 N CHRISTIANA Ave,CHICAGO,IL,60659,479200,6,2.5,North Park,,3750,,119,,,Active,,,http://www.redfin.com/IL/Chicago/5736-N-Christiana-Ave-60659/home/13516187,MRED,10010566,N,Y,41.9859589,-87.7128998
MLS Listing,,Single Family Residential,1536 W Glenlake Ave,CHICAGO,IL,60660,499000,4,1.5,Edgewater,,3720,1909,119,,,Active,,,http://www.redfin.com/IL/Chicago/1536-W-Glenlake-Ave-60660/home/13414831,MRED,10010541,N,Y,41.9927842,-87.6691515
MLS Listing,,Condo/Co-op,1466 W Winona St #2,CHICAGO,IL,60640,499900,2,2.0,Uptown,1250,,2018,120,400,140,Active,,,http://www.redfin.com/IL/Chicago/1466-W-Winona-St-60640/unit-2/home/146191911,MRED,10010221,N,Y,41.975571,-87.667367
MLS Listing,,Multi-Family (2-4 Unit),5917 N ROCKWELL St,CHICAGO,IL,60659,499000,5,3.0,West Ridge,,3750,1927,121,,,Active,,,http://www.redfin.com/IL/Chicago/5917-N-Rockwell-St-60659/unit-1/home/13519196,MRED,10009494,N,Y,41.9891561,-87.6941266
MLS Listing,,Condo/Co-op,611 S WELLS St #2609,CHICAGO,IL,60607,499000,2,2.0,Loop,1250,,2008,122,399,617,Active,,,http://www.redfin.com/IL/Chicago/611-S-Wells-St-60607/unit-2609/home/40379423,MRED,10008351,N,Y,41.8741493,-87.6334072
MLS Listing,,Single Family Residential,6301 N Caldwell Ave,CHICAGO,IL,60646,485000,5,4.0,Forest Glen,3800,5998,1955,123,128,,Active,,,http://www.redfin.com/IL/Chicago/6301-N-Caldwell-Ave-60646/home/13512486,MRED,10007841,N,Y,41.9961248,-87.7634756
MLS Listing,,Condo/Co-op,1651 N DAYTON St #304,CHICAGO,IL,60614,499000,2,2.5,Lincoln Park,1650,,,126,302,278,Active,,,http://www.redfin.com/IL/Chicago/1651-N-Dayton-St-60614/unit-304/home/13350524,MRED,10004986,N,Y,41.9123978,-87.6492062
MLS Listing,,Townhouse,1244 W Monroe St #7,CHICAGO,IL,60607,499900,2,2.0,Near West Side,1589,,2006,126,315,170,Active,,,http://www.redfin.com/IL/Chicago/1244-W-Monroe-St-60607/unit-7/home/26817410,MRED,10004519,N,Y,41.8806146,-87.6588245
MLS Listing,,Condo/Co-op,1155 S State St Unit C500,CHICAGO,IL,60605,479900,2,2.0,Loop,1502,,2004,129,320,997,Active,,,http://www.redfin.com/IL/Chicago/1155-S-State-St-60605/unit-C500/home/26815664,MRED,10002126,N,Y,41.8677265,-87.6270061
MLS Listing,,Multi-Family (2-4 Unit),1927 W MORSE Ave,CHICAGO,IL,60626,499000,6,2.0,Rogers Park,,5848,1906,130,,,Active,,,http://www.redfin.com/IL/Chicago/1927-W-Morse-Ave-60626/home/13570719,MRED,10001405,N,Y,42.0073759,-87.6791281
MLS Listing,,Condo/Co-op,222 E PEARSON St #1901,CHICAGO,IL,60611,499900,2,2.0,Near North Side,1250,,1963,131,400,1040,Active,,,http://www.redfin.com/IL/Chicago/222-E-Pearson-St-60611/unit-1901/home/12604616,MRED,10000236,N,Y,41.8979023,-87.620689
MLS Listing,,Condo/Co-op,730 W 17th Pl Unit 3W,Chicago,IL,60616,494000,3,2.0,Lower West Side,1500,8512,2018,133,329,269,Active,,,http://www.redfin.com/IL/Chicago/730-W-17th-Pl-60616/unit-3W/home/146103151,MRED,09996666,N,Y,41.8585384,-87.6459334
MLS Listing,,Single Family Residential,2435 W BERTEAU Ave,CHICAGO,IL,60618,499900,3,2.0,North Center,1267,3125,1901,138,395,,Active,,,http://www.redfin.com/IL/Chicago/2435-W-Berteau-Ave-60618/home/13487689,MRED,09992279,N,Y,41.9574441,-87.6899881
MLS Listing,,Condo/Co-op,700 N LARRABEE St #1611,CHICAGO,IL,60654,475000,2,2.0,Near North Side,,,2006,139,,688,Active,,,http://www.redfin.com/IL/Chicago/700-N-Larrabee-St-60654/unit-1611/home/18935178,MRED,09990586,N,Y,41.8947524,-87.6433772
MLS Listing,,Multi-Family (2-4 Unit),6428 N ROCKWELL St,CHICAGO,IL,60645,499000,8,5.0,West Ridge,,4125,,141,,,Active,,,http://www.redfin.com/IL/Chicago/6428-N-Rockwell-St-60645/unit-2/home/13581347,MRED,09988248,N,Y,41.9985294,-87.6951092
MLS Listing,,Condo/Co-op,849 N FRANKLIN St #1212,CHICAGO,IL,60610,498500,2,2.0,Near North Side,1315,,2006,144,379,721,Active,,,http://www.redfin.com/IL/Chicago/849-N-Franklin-St-60610/unit-1212/home/18942241,MRED,09985695,N,Y,41.8979058,-87.6353738
MLS Listing,,Single Family Residential,5614 N Drake Ave,CHICAGO,IL,60659,479900,5,3.0,North Park,2318,3920,1950,146,207,,Active,,,http://www.redfin.com/IL/Chicago/5614-N-Drake-Ave-60659/home/13516627,MRED,09983072,N,Y,41.9834708,-87.7177918
MLS Listing,,Vacant Land,4919 S Cicero Ave,Chicago,IL,60632,499000,,,Garfield Ridge,,10890,,146,,,Active,,,http://www.redfin.com/IL/Chicago/4919-S-Cicero-Ave-60632/home/100335611,MRED,09982747,N,Y,41.803388,-87.742645
MLS Listing,,Condo/Co-op,1905 N Albany Ave #2,CHICAGO,IL,60647,485000,2,2.5,Logan Square,1575,3125,2018,152,308,225,Active,,,http://www.redfin.com/IL/Chicago/1905-N-Albany-Ave-60647/unit-2/home/145995292,MRED,09975859,N,Y,41.9158103,-87.7050127
MLS Listing,,Multi-Family (2-4 Unit),1432 E 73rd St,CHICAGO,IL,60619,495000,16,8.0,South Shore,,6098,,153,,,Active,,,http://www.redfin.com/IL/Chicago/1432-E-73rd-St-60619/home/13921318,MRED,09973654,N,Y,41.7625589,-87.589646
MLS Listing,,Single Family Residential,5003 N Hermitage Ave,CHICAGO,IL,60640,500000,4,1.5,Uptown,1900,3977,1899,166,263,,Active,,,http://www.redfin.com/IL/Chicago/5003-N-Hermitage-Ave-60640/home/13403607,MRED,09959834,N,Y,41.9725731,-87.6723873
MLS Listing,,Condo/Co-op,1951 N Cleveland Ave Unit 1N,CHICAGO,IL,60614,495000,2,2.0,Lincoln Park,1200,,1920,167,413,303,Active,,,http://www.redfin.com/IL/Chicago/1951-N-Cleveland-Ave-60614/unit-1N/home/13345926,MRED,09958598,N,Y,41.9179495,-87.6409698
MLS Listing,,Vacant Land,5351 W Addison St,CHICAGO,IL,60641,500000,,,Portage Park,,3920,,168,,,Active,,,http://www.redfin.com/IL/Chicago/5351-W-Addison-St-60641/home/145558921,MRED,09958386,N,Y,41.945692,-87.76142
MLS Listing,,Condo/Co-op,500 W SUPERIOR St #1904,CHICAGO,IL,60654,489000,2,2.0,Near North Side,1100,,2005,173,445,768,Active,November-18-2018 12:00 PM,November-18-2018 02:00 PM,http://www.redfin.com/IL/Chicago/500-W-Superior-St-60654/unit-1904/home/12602004,MRED,09952536,N,Y,41.8957754,-87.6422178
MLS Listing,,Single Family Residential,1217 N Marion St,OAK PARK,IL,60302,489500,4,4.0,Oak Park,2318,8350,1949,175,211,,Active,,,http://www.redfin.com/IL/Oak-Park/1217-N-Marion-St-60302/home/13273842,MRED,09949097,N,Y,41.9077619,-87.8044959
MLS Listing,,Single Family Residential,1325 Lois Ave,PARK RIDGE,IL,60068,499900,3,2.0,Park Ridge,,7205,,186,,,Active,,,http://www.redfin.com/IL/Park-Ridge/1325-Lois-Ave-60068/home/13563620,MRED,09938248,N,Y,41.9888847,-87.8433491
MLS Listing,,Condo/Co-op,1340 W Hubbard St #1,Chicago,IL,60622,499000,4,3.0,West Town,3300,,2000,187,151,148,Active,,,http://www.redfin.com/IL/Chicago/1340-W-Hubbard-St-60642/unit-1/home/12739285,MRED,09936237,N,Y,41.8902669,-87.6606158
MLS Listing,,Multi-Family (2-4 Unit),3035 W Addison St,CHICAGO,IL,60618,499900,4,2.0,Avondale,,3484,1918,187,,,Active,,,http://www.redfin.com/IL/Chicago/3035-W-Addison-St-60618/home/13452370,MRED,09935920,N,Y,41.9464634,-87.7043102
MLS Listing,,Condo/Co-op,21 W Chestnut St #609,CHICAGO,IL,60610,489000,2,2.0,Near North Side,1410,,1999,189,347,846,Active,,,http://www.redfin.com/IL/Chicago/21-W-Chestnut-St-60610/unit-609/home/12768035,MRED,09926216,N,Y,41.8976711,-87.6288248
MLS Listing,,Vacant Land,10000 S Halsted St,CHICAGO,IL,60628,499000,,,Washington Heights,,13503,,196,,,Active,,,http://www.redfin.com/IL/Chicago/10000-S-Halsted-St-60628/home/145442404,MRED,09925294,N,Y,41.712374,-87.6430715
MLS Listing,,Single Family Residential,1021 E 45th St,CHICAGO,IL,60653,499999,5,3.5,Kenwood,2464,4320,1893,200,203,,Active,,,http://www.redfin.com/IL/Chicago/1021-E-45th-St-60653/home/13961716,MRED,09922665,N,Y,41.812967,-87.600814
MLS Listing,,Single Family Residential,3339 S Giles Ave,CHICAGO,IL,60616,485000,4,2.5,Douglas,2700,2692,,208,180,,Active,,,http://www.redfin.com/IL/Chicago/3339-S-Giles-Ave-60616/home/14071089,MRED,09912356,N,Y,41.833566,-87.619033
MLS Listing,,Single Family Residential,2817 W Morse Ave,Chicago,IL,60645,484250,4,3.0,West Ridge,1357,5044,1952,214,357,,Active,,,http://www.redfin.com/IL/Chicago/2817-W-Morse-Ave-60645/home/13586433,MRED,09906775,N,Y,42.0063948,-87.7005954
MLS Listing,,Multi-Family (2-4 Unit),4530 N Harding Ave,CHICAGO,IL,60625,490000,4,2.5,Albany Park,,3920,1914,214,,,Active,,,http://www.redfin.com/IL/Chicago/4530-N-Harding-Ave-60625/home/13485751,MRED,09905694,N,Y,41.963753,-87.7269006
MLS Listing,,Condo/Co-op,40 E 9TH St Unit 1310C,Chicago,IL,60605,499000,3,2.5,Loop,1500,,1921,229,333,1300,Active,,,http://www.redfin.com/IL/Chicago/40-E-9th-St-60605/unit-1310C/home/12646792,MRED,09891342,N,Y,41.8707384,-87.6263891
MLS Listing,,Condo/Co-op,474 N Lake Shore Dr #3902,CHICAGO,IL,60611,485000,2,2.0,Near North Side,1257,,1991,236,386,929,Active,,,http://www.redfin.com/IL/Chicago/474-N-Lake-Shore-Dr-60611/unit-3902/home/12608023,MRED,09884566,N,Y,41.8907702,-87.6148195
MLS Listing,,Townhouse,1320 N State Pkwy Unit 10-11B,CHICAGO,IL,60610,499000,4,3.0,Near North Side,2812,,1924,244,177,4891,Active,,,http://www.redfin.com/IL/Chicago/1320-N-State-Pkwy-60610/unit-10-11B/home/105626175,MRED,09875322,N,Y,41.9064539,-87.6290111
MLS Listing,,Condo/Co-op,111 W Maple St #3403,CHICAGO,IL,60610,475000,2,2.0,Near North Side,1100,,1991,248,432,658,Active,,,http://www.redfin.com/IL/Chicago/111-W-Maple-St-60610/unit-3403/home/12801155,MRED,09872126,N,Y,41.9013479,-87.6318349
MLS Listing,,Multi-Family (2-4 Unit),924 E 46th St,CHICAGO,IL,60653,490000,19,9.0,Kenwood,,4800,,250,,,Active,,,http://www.redfin.com/IL/Chicago/924-E-46th-St-60653/home/144950931,MRED,09868520,N,Y,41.8115898,-87.6027843
MLS Listing,,Vacant Land,3835 N Harlem Ave,CHICAGO,IL,60634,489000,,,Dunning,,2613,,294,,,Active,,,http://www.redfin.com/IL/Chicago/3835-N-Harlem-Ave-60634/home/55631785,MRED,09833644,N,Y,41.9499939,-87.80681
MLS Listing,,Multi-Family (2-4 Unit),1718 W Morse Ave,CHICAGO,IL,60626,499999,5,3.0,Rogers Park,,3125,1908,318,,,Active,,,http://www.redfin.com/IL/Chicago/1718-W-Morse-Ave-60626/home/22876743,MRED,09821331,N,Y,42.0079887,-87.6730807
MLS Listing,,Condo/Co-op,175 E Delaware Pl #6907,CHICAGO,IL,60611,499000,2,2.0,Near North Side,1408,,1969,333,354,1038,Active,,,http://www.redfin.com/IL/Chicago/175-E-Delaware-Pl-60611/unit-6907/home/14119739,MRED,09814009,N,Y,41.8989444,-87.6227945
MLS Listing,,Vacant Land,5853 S Western Ave,CHICAGO,IL,60636,499000,,,Gage Park,,9424,,369,,,Active,,,http://www.redfin.com/IL/Chicago/5853-S-Western-Ave-60636/home/28813497,MRED,09791573,N,Y,41.7867042,-87.6834398
MLS Listing,,Condo/Co-op,57 E DELAWARE Pl #2501,CHICAGO,IL,60611,490000,1,1.5,Near North Side,1135,,2000,371,432,827,Active,,,http://www.redfin.com/IL/Chicago/57-E-Delaware-Pl-60611/unit-2501/home/12769891,MRED,09789686,N,Y,41.8988683,-87.626187
MLS Listing,,Vacant Land,3431 W NORTH Ave,CHICAGO,IL,60647,499000,,,Humboldt Park,,8640,,406,,,Active,,,http://www.redfin.com/IL/Chicago/3431-W-North-Ave-60647/home/17936047,MRED,09760807,N,Y,41.909763,-87.713211
MLS Listing,,Single Family Residential,1011 E 50TH St,CHICAGO,IL,60615,495000,5,3.5,Kenwood,3000,3600,1895,436,165,,Active,,,http://www.redfin.com/IL/Chicago/1011-E-50th-St-60615/home/13950998,MRED,09733141,N,Y,41.8039393,-87.6007781
MLS Listing,,Condo/Co-op,3730 N Lake Shore Dr Unit 2B,CHICAGO,IL,60613,480000,2,2.5,Lake View,2100,,1923,491,229,1430,Active,,,http://www.redfin.com/IL/Chicago/3730-N-Lake-Shore-Dr-60613/unit-2B/home/12589726,MRED,09677731,N,Y,41.951325,-87.6452694
MLS Listing,,Vacant Land,2906 W Madison St,CHICAGO,IL,60612,499000,,,East Garfield Park,,22320,,662,,,Active,,,http://www.redfin.com/IL/Chicago/2906-W-Madison-St-60612/home/28917861,MRED,09475699,N,Y,41.881322,-87.699085
MLS Listing,,Vacant Land,1859 W Armitage Ave,Chicago,IL,60622,499900,,,Logan Square,,3000,,1154,,,Active,,,http://www.redfin.com/IL/Chicago/1859-W-Armitage-Ave-60622/home/21878119,MRED,09033296,N,Y,41.917537,-87.675004
